ICAO;IATA;AirportName;City;Country;Latitude;Longitude;Altitude
AYGA;GKA;GOROKA;GOROKA;PAPUA NEW GUINEA;-6.081666667;145.3916667;1609.9536
AYLA;LAE;;LAE;PAPUA NEW GUINEA;0;0;0
AYMD;MAG;MADANG;MADANG;PAPUA NEW GUINEA;-5.206944444;145.7886111;6.096
AYMH;HGU;MOUNT HAGEN;MOUNT HAGEN;PAPUA NEW GUINEA;-5.826111111;144.2961111;1642.2624
AYNZ;LAE;NADZAB;NADZAB;PAPUA NEW GUINEA;-6.569722222;146.7261111;72.8472
AYPY;POM;PORT MORESBY JACKSONS INTERNATIONAL;PORT MORESBY;PAPUA NEW GUINEA;-9.443333333;147.22;44.5008
AYRB;RAB;;RABAUL;PAPUA NEW GUINEA;0;0;0
AYWK;WWK;WEWAK INTERNATIONAL;WEWAK;PAPUA NEW GUINEA;-3.583611111;143.6691667;5.7912
BGAM;N/A;;ANGMAGSSALIK;GREENLAND;0;0;0
BGAS;N/A;;ANGISSOQ;GREENLAND;0;0;0
BGAT;N/A;;APUTITEQ;GREENLAND;0;0;0
BGBW;UAK;NARSARSUAQ;NARSSARSSUAQ;GREENLAND;61.16111111;-45.4275;34.1376
BGCH;JCH;;CHRISTIANSHAAB;GREENLAND;0;0;0
BGCO;N/A;NERLERIT INAAT CONSTABLE PYNT;NERLERIT INAAT;GREENLAND;70.73944444;-22.64583333;13.716
BGDB;N/A;;DANEBORG;GREENLAND;0;0;0
BGDH;N/A;;DANMARKSHAVN;GREENLAND;0;0;0
BGDU;N/A;;DUNDAS;GREENLAND;0;0;0
BGEM;JEG;;EGEDESMINDE;GREENLAND;0;0;0
BGFD;N/A;;FREDERIKSDAL;GREENLAND;0;0;0
BGFH;JFR;;FREDERIKSHAAB;GREENLAND;0;0;0
BGGD;JGR;;GRONNEDAL;GREENLAND;0;0;0
BGGH;GOH;NUUK;GODTHAAB;GREENLAND;64.19083333;-51.67805556;86.2584
BGGN;JGO;;GODHAVN;GREENLAND;0;0;0
BGHB;JHS;;HOLSTEINSBORG;GREENLAND;0;0;0
BGIS;N/A;;ISORTOQ;GREENLAND;0;0;0
BGIT;N/A;;IVIGTUT;GREENLAND;0;0;0
BGJH;JJU;;JULIANEHAAB;GREENLAND;0;0;0
BGJN;JAV;JACOBSHAVN;JAKOBSHAVN;GREENLAND;69.23333333;-51.06666667;33.528
BGKD;N/A;;KAP DAN;GREENLAND;0;0;0
BGKK;KUS;KULUSUK;KULUSUK;GREENLAND;65.58333333;-37.15;33.528
BGKM;N/A;;KUNGMIUT;GREENLAND;0;0;0
BGKT;N/A;;KAP TOBIN;GREENLAND;0;0;0
BGMV;N/A;;MESTERS VIG;GREENLAND;0;0;0
BGNN;JNN;;NANORTALIK;GREENLAND;0;0;0
BGNS;JNS;;NARSSAQ;GREENLAND;0;0;0
BGOS;N/A;;ORSSUIORSSUAQ;GREENLAND;0;0;0
BGPC;N/A;;PRINS CHRISTIAN SUND;GREENLAND;0;0;0
BGRS;N/A;;RAVNS STORO;GREENLAND;0;0;0
BGSC;N/A;;SCORESBYSUND;GREENLAND;0;0;0
BGSF;SFJ;KANGERLUSSUAQ SONDRE STROMFJORD;SONDRESTROM;GREENLAND;67.01694444;-50.68916667;50.292
BGSG;N/A;;SERMILIGAO;GREENLAND;0;0;0
BGST;JSU;;SUKKERTOPPEN;GREENLAND;0;0;0
BGTL;THU;THULE AIR BASE;THULE;GREENLAND;76.53111111;-68.70305556;76.5048
BGTM;N/A;;TINGMIARMIUT;GREENLAND;0;0;0
BGTN;N/A;;TINITEQILAQ;GREENLAND;0;0;0
BGUM;N/A;;UMANAK;GREENLAND;0;0;0
BGUP;JUV;;UPERNAVIK;GREENLAND;0;0;0
BIAR;AEY;AKUREYRI;AKUREYRI;ICELAND;65.65972222;-18.0725;1.8288
BIBL;N/A;;BLONDUOS;ICELAND;0;0;0
BIDV;N/A;;DJUOIVOGUR;ICELAND;0;0;0
BIEG;EGS;EGILSSTADIR;EGILSSTADIR;ICELAND;65.28333333;-14.40138889;23.1648
BIFM;N/A;;FAGURHOLSMYRI;ICELAND;0;0;0
BIGR;GRY;;GRIMSEY;ICELAND;0;0;0
BIHN;HFN;HORNAFJORDUR;HOFN;ICELAND;64.29555556;-15.22722222;7.3152
BIHU;HZK;HUSAVIK;HUSAVIK;ICELAND;65.95222222;-17.42583333;13.716
BIIS;IFJ;ISAFJORDUR;ISAFJORDUR;ICELAND;66.05805556;-23.13527778;2.4384
BIKF;KEF;KEFLAVIK NAS;KEFLAVIK;ICELAND;63.985;-22.60555556;52.1208
BIKP;OPA;KOPASKER;KOPASKER;ICELAND;66.31361111;-16.46111111;6.096
BIKR;SAK;;SAUDARKROKUR;ICELAND;0;0;0
BINF;NOR;;NORDFJORDUR;ICELAND;0;0;0
BIPA;PFJ;PATREKSFJORDUR;PATREKSFJORDUR;ICELAND;65.55583333;-23.965;3.3528
BIRG;RFN;;RAUFARHOFN;ICELAND;0;0;0
BIRK;RKV;REYKJAVIK;REYKJAVIK;ICELAND;64.13;-21.94055556;14.6304
BISI;SIJ;SIGLUFJORDHUR;SIGLUFJORDUR;ICELAND;66.13333333;-18.91666667;3.048
BISS;N/A;;SANDSKEID;ICELAND;0;0;0
BIST;N/A;;STYKKISHOLMUR;ICELAND;0;0;0
BITE;TEY;;THINGEYRI;ICELAND;0;0;0
BITH;THO;;THORSHOFN;ICELAND;0;0;0
BIVM;VEY;VESTMANNAEYJAR;VESTMANNAEYJAR;ICELAND;63.42416667;-20.27861111;99.3648
BIVO;VPN;;VOPNAFJORDUR;ICELAND;0;0;0
BZGD;N/A;;GODLEY;NEW ZEALAND;0;0;0
CUAP;N/A;;ACTIVE PASS;CANADA;0;0;0
CUHA;YQC;;QUAQTAQ;CANADA;0;0;0
CUQC;N/A;;STIRLING;CANADA;0;0;0
CUUP;N/A;;OTTAWA;CANADA;0;0;0
CWBF;N/A;;BATTLE HARBOUR;CANADA;0;0;0
CWHJ;N/A;;HOLBERG;CANADA;0;0;0
CWMK;N/A;;SIMCOE;CANADA;0;0;0
CWMN;N/A;;MOUNT FOREST;CANADA;0;0;0
CWOH;N/A;;SAINTE AGATHE;CANADA;0;0;0
CWPC;N/A;;PINCHER CREEK;CANADA;0;0;0
CWPO;N/A;;PILOT MOUNT;CANADA;0;0;0
CWVA;N/A;;BONAVISTA;CANADA;0;0;0
CYAB;YAB;;ARCTIC BAY;CANADA;0;0;0
CYAJ;N/A;;KOMAKUK;CANADA;0;0;0
CYAL;YAL;;ALERT BAY;CANADA;0;0;0
CYAM;YAM;SAULT STE MARIE;SAULT SAINTE MARIE;CANADA;46.485;-84.50944444;192.024
CYAV;YAV;WINNIPEG ST ANDREWS;WINNIPEG;CANADA;50.05638889;-97.0325;231.648
CYAW;YAW;SHEARWATER;HALIFAX;CANADA;44.63972222;-63.49944444;50.9016
CYAY;YAY;ST ANTHONY;ST. ANTHONY;CANADA;51.39166667;-56.08444444;28.0416
CYAZ;YAZ;TOFINO;TOFINO;CANADA;49.08222222;-125.7725;24.384
CYBA;N/A;;BANFF;CANADA;0;0;0
CYBB;YBB;KUGAARUK;PELLY BAY;CANADA;68.53444444;-89.80805556;17.0688
CYBC;YBC;BAIE COMEAU;BAIE COMEAU;CANADA;49.13222222;-68.20722222;21.6408
CYBG;YBG;BAGOTVILLE;BAGOTVILLE;CANADA;48.33055556;-70.99638889;159.1056
CYBK;YBK;BAKER LAKE;BAKER LAKE;CANADA;64.29888889;-96.07777778;17.9832
CYBL;YBL;CAMPBELL RIVER;CAMPBELL RIVER;CANADA;49.95083333;-125.2708333;105.4608
CYBR;YBR;BRANDON MUNI;BRANDON;CANADA;49.91;-99.95194444;409.3464
CYBT;YBT;;BROCHET;CANADA;0;0;0
CYCA;YRF;;CARTWRIGHT;CANADA;0;0;0
CYCB;YCB;CAMBRIDGE BAY;CAMBRIDGE BAY;CANADA;69.10805556;-105.1383333;27.432
CYCD;YCD;NANAIMO;NANAIMO;CANADA;49.05222222;-123.87;28.3464
CYCG;YCG;CASTLEGAR;CASTLEGAR;CANADA;49.29638889;-117.6325;494.9952
CYCH;YCH;MIRAMICHI;CHATHAM;CANADA;47.00777778;-65.44916667;32.9184
CYCL;YCL;CHARLO;CHARLO;CANADA;47.99055556;-66.33138889;40.2336
CYCO;YCO;KUGLUKTUK;COPPERMINE;CANADA;67.81666667;-115.1438889;22.5552
CYCS;YCS;;CHESTERFIELD INLET;CANADA;0;0;0
CYCT;YCT;CORONATION;CORONATION;CANADA;52.075;-111.4452778;790.956
CYCV;YCV;;MONTREAL;CANADA;0;0;0
CYCW;YCW;CHILLIWACK;CHILLIWACK;CANADA;49.15277778;-121.9388889;9.7536
CYCX;N/A;;CAMP GAGETOWN;CANADA;0;0;0
CYCY;YCY;CLYDE RIVER;CLYDE RIVER;CANADA;70.48611111;-68.51666667;26.5176
CYCZ;YZS;FAIRMONT HOT SPRINGS;CORAL HARBOUR;CANADA;50.33194444;-115.8736111;810.1584
CYDA;YDA;DAWSON;DAWSON;CANADA;64.04305556;-139.1277778;370.0272
CYDB;YDB;BURWASH;BURWASH;CANADA;61.37111111;-139.0405556;806.8056
CYDC;YDC;PRINCETON;PRINCETON;CANADA;49.4675;-120.5119444;700.4304
CYDF;YDF;DEER LAKE;DEER LAKE;CANADA;49.21083333;-57.39138889;21.9456
CYDL;YDL;DEASE LAKE;DEASE LAKE;CANADA;58.42222222;-130.0322222;792.48
CYDN;YDN;DAUPHIN BARKER;DAUPHIN;CANADA;51.10083333;-100.0525;304.1904
CYDQ;YDQ;DAWSON CREEK;DAWSON CREEK;CANADA;55.74166667;-120.1819444;654.7104
CYDR;N/A;;BROADVIEW;CANADA;0;0;0
CYED;YED;EDMONTON NAMAO;EDMONTON;CANADA;53.66666667;-113.4666667;0
CYEG;YEG;EDMONTON INTERNATIONAL;EDMONTON;CANADA;53.30972222;-113.5797222;723.2904
CYEK;YEK;ARVIAT;ESKIMO POINT;CANADA;61.09416667;-94.07083333;9.7536
CYEN;YEN;ESTEVAN;ESTEVAN;CANADA;49.21027778;-102.9658333;580.644
CYEP;N/A;;ESTEVAN POINT;CANADA;0;0;0
CYET;YET;EDSON;EDSON;CANADA;53.57888889;-116.465;926.8968
CYEU;YEU;EUREKA;EUREKA;CANADA;79.99472222;-85.81333333;78.0288
CYEV;YEV;INUVIK MIKE ZUBKO;INUVIK;CANADA;68.30416667;-133.4827778;68.2752
CYFB;YFB;IQALUIT;IQALUIT;CANADA;63.75638889;-68.55583333;33.528
CYFC;YFC;FREDERICTON;FREDERICTON;CANADA;45.86944444;-66.53166667;20.7264
CYFE;N/A;FORESTVILLE;FORESTVILLE;CANADA;48.74611111;-69.09722222;8.8392
CYFL;N/A;;FORT RELIANCE;CANADA;0;0;0
CYFO;YFO;FLIN FLON;FLIN FLON;CANADA;54.67805556;-101.6816667;303.8856
CYFR;YFR;FORT RESOLUTION;FORT RESOLUTION;CANADA;61.18083333;-113.6897222;160.3248
CYFS;YFS;FORT SIMPSON;FORT SIMPSON;CANADA;61.76027778;-121.2366667;169.164
CYGA;N/A;;GAGNON;CANADA;0;0;0
CYGK;YGK;KINGSTON;KINGSTON;CANADA;44.22527778;-76.59694444;92.964
CYGL;YGL;LA GRANDE RIVIERE;LA GRANDE RIVIERE;CANADA;53.62527778;-77.70416667;194.7672
CYGP;YGP;GASPE;GASPE;CANADA;48.77527778;-64.47861111;32.9184
CYGQ;YGQ;GERALDTON GREENSTONE REGIONAL;GERALDTON;CANADA;49.77833333;-86.93944444;348.6912
CYGR;YGR;ILES DE LA MADELEINE;ILES DE LA MADELEINE;CANADA;47.42472222;-61.77805556;10.3632
CYGT;YGT;;IGLOOLIK;CANADA;0;0;0
CYGW;YGW;KUUJJUARAPIK;KUUJJUARARAPIK;CANADA;55.28333333;-77.76666667;19.812
CYGX;YGX;GILLAM;GILLAM;CANADA;56.35;-94.7;143.256
CYGY;N/A;;DECEPTION;CANADA;0;0;0
CYGZ;YGZ;;GRISE FIORD;CANADA;0;0;0
CYHB;YHB;HUDSON BAY;HUDSON BAY;CANADA;52.81666667;-102.3113889;358.14
CYHD;YHD;DRYDEN RGNL;DRYDEN;CANADA;49.83166667;-92.74416667;412.6992
CYHE;N/A;;HOPE;CANADA;0;0;0
CYHI;YHI;HOLMAN;HOLMAN ISLAND;CANADA;70.76305556;-117.8058333;35.6616
CYHK;YHK;GJOA HAVEN;GJOA HAVEN;CANADA;68.63555556;-95.84972222;46.3296
CYHM;YHM;HAMILTON;HAMILTON;CANADA;43.17305556;-79.935;237.744
CYHO;YHO;;HOPEDALE;CANADA;0;0;0
CYHU;YHU;ST HUBERT;MONTREAL;CANADA;45.5175;-73.41694444;27.432
CYHY;YHY;HAY RIVER;HAY RIVER;CANADA;60.83972222;-115.7827778;165.5064
CYHZ;YHZ;HALIFAX INTERNATIONAL;HALIFAX;CANADA;44.88083333;-63.50861111;145.3896
CYIB;YIB;ATIKOKAN MUNI;ATIKOKAN;CANADA;48.77388889;-91.63861111;429.1584
CYIO;YIO;POND INLET;POND INLET;CANADA;72.68333333;-77.96666667;55.1688
CYIV;YIV;;ISLAND LAKE;CANADA;0;0;0
CYJA;N/A;;JASPER;CANADA;0;0;0
CYJN;YJN;ST JEAN;ST. JEAN;CANADA;45.29444444;-73.28111111;41.4528
CYJT;YJT;STEPHENVILLE;STEPHENVILLE;CANADA;48.54416667;-58.55;25.6032
CYKA;YKA;KAMLOOPS;KAMLOOPS;CANADA;50.70222222;-120.4419444;345.3384
CYKF;YKF;WATERLOO RGNL;WATERLOO;CANADA;43.45888889;-80.38444444;316.992
CYKL;YKL;SCHEFFERVILLE;SCHEFFERVILLE;CANADA;54.805;-66.80527778;520.9032
CYKY;YKY;KINDERSLEY;KINDERSLEY;CANADA;51.5175;-109.1808333;694.0296
CYKZ;YKZ;BUTTONVILLE MUNI;TORONTO;CANADA;43.86222222;-79.37;198.12
CYLA;N/A;;LANGARA;CANADA;0;0;0
CYLC;YLC;;LAKE HARBOUR;CANADA;0;0;0
CYLD;YLD;CHAPLEAU;CHAPLEAU;CANADA;47.82;-83.34638889;446.532
CYLJ;YLJ;MEADOW LAKE;MEADOW LAKE;CANADA;54.12527778;-108.5227778;480.3648
CYLL;YLL;LLOYDMINSTER;LLOYDMINSTER;CANADA;53.30916667;-110.0725;668.7312
CYLO;N/A;;SHILO;CANADA;0;0;0
CYLT;YLT;ALERT;ALERT;CANADA;82.51777778;-62.28055556;30.48
CYLW;YLW;KELOWNA;KELOWNA;CANADA;49.95611111;-119.3777778;429.4632
CYLY;N/A;;LYTTON;CANADA;0;0;0
CYMA;YMA;MAYO;MAYO;CANADA;63.61666667;-135.8666667;503.8344
CYMD;N/A;;MOULD BAY;CANADA;0;0;0
CYMJ;YMJ;MOOSE JAW;MOOSE JAW;CANADA;50.33027778;-105.5591667;576.6816
CYMM;YMM;FORT MCMURRAY;FORT MCMURRAY;CANADA;56.65333333;-111.2219444;369.1128
CYMO;YMO;MOOSONEE;MOOSONEE;CANADA;51.29111111;-80.60777778;9.144
CYMR;N/A;;MERRY ISLAND;CANADA;0;0;0
CYMW;YMW;MANIWAKI;MANIWAKI;CANADA;46.27444444;-75.99;200.8632
CYMX;YMX;MONTREAL INTERNATIONAL MIRABEL;MONTREAL;CANADA;45.67972222;-74.03861111;82.296
CYNA;YNA;NATASHQUAN;NATASHQUAN;CANADA;50.18972222;-61.78916667;10.668
CYND;YND;GATINEAU;GATINEAU;CANADA;45.52138889;-75.56416667;64.3128
CYNI;N/A;;NITCHEQUON;CANADA;0;0;0
CYNM;YNM;MATAGAMI;MATAGAMI;CANADA;49.76166667;-77.80277778;279.8064
CYNY;N/A;;ENDERBY;CANADA;0;0;0
CYO;N/A;;WYNYARD;CANADA;0;0;0
CYOC;YOC;OLD CROW;OLD CROW;CANADA;67.57055556;-139.8391667;251.1552
CYOD;YOD;COLD LAKE;COLD LAKE;CANADA;54.405;-110.2794444;541.02
CYOJ;YOJ;HIGH LEVEL;HIGH LEVEL;CANADA;58.62138889;-117.1647222;338.328
CYOW;YOW;OTTAWA MACDONALD CARTIER INTERNATIONAL;OTTAWA;CANADA;45.3225;-75.66916667;113.9952
CYPA;YPA;PRINCE ALBERT GLASS FIELD;PRINCE ALBERT;CANADA;53.21416667;-105.6727778;428.244
CYPE;YPE;PEACE RIVER;PEACE RIVER;CANADA;56.22694444;-117.4472222;570.8904
CYPF;N/A;;ESQUIMALT;CANADA;0;0;0
CYPG;YPG;SOUTHPORT;PORTAGE-LA-PRAIRIE;CANADA;49.90277778;-98.27472222;269.748
CYPH;YPH;;INUKJUAK;CANADA;0;0;0
CYPK;N/A;PITT MEADOWS;PITT MEADOWS;CANADA;49.21611111;-122.71;3.3528
CYPL;YPL;PICKLE LAKE;PICKLE LAKE;CANADA;51.44638889;-90.21416667;386.1816
CYPN;YPN;PORT MENIER;PORT MENIER;CANADA;49.83638889;-64.28861111;50.9016
CYPQ;YPQ;PETERBOROUGH;PETERBOROUGH;CANADA;44.23;-78.36333333;191.4144
CYPR;YPR;PRINCE RUPERT;PRINCE PUPERT;CANADA;54.28611111;-130.4447222;35.3568
CYPY;YPY;FORT CHIPEWYAN;FORT CHIPEWYAN;CANADA;58.76722222;-111.1172222;231.9528
CYQA;YQA;MUSKOKA;MUSKOKA;CANADA;44.97472222;-79.30333333;281.94
CYQB;YQB;QUEBEC JEAN LESAGE INTERNATIONAL;QUEBEC;CANADA;46.78833333;-71.3975;74.3712
CYQF;YQF;RED DEER REGIONAL;RED DEER INDUSTRIAL;CANADA;52.17861111;-113.8930556;904.6464
CYQG;YQG;WINDSOR;WINDSOR;CANADA;42.27555556;-82.95555556;189.5856
CYQH;YQH;WATSON LAKE;WATSON LAKE;CANADA;60.11777778;-128.8219444;687.324
CYQK;YQK;KENORA;KENORA;CANADA;49.78833333;-94.36305556;405.9936
CYQL;YQL;LETHBRIDGE;LETHBRIDGE;CANADA;49.63027778;-112.7997222;928.7256
CYQM;YQM;GREATER MONCTON INTERNATIONAL;MONCTON;CANADA;46.11222222;-64.67861111;70.7136
CYQN;N/A;NAKINA;NAKINA;CANADA;50.18277778;-86.69638889;322.1736
CYQQ;YQQ;COMOX;COMOX;CANADA;49.71083333;-124.8866667;25.6032
CYQR;YQR;REGINA INTERNATIONAL;REGINA;CANADA;50.43194444;-104.6658333;577.2912
CYQT;YQT;THUNDER BAY;THUNDER BAY;CANADA;48.37194444;-89.32388889;199.0344
CYQU;YQU;GRANDE PRAIRIE;GRANDE PRAIRIE;CANADA;55.17972222;-118.885;669.036
CYQV;YQV;YORKTON MUNI;YORKTON;CANADA;51.26472222;-102.4616667;498.348
CYQW;YQW;NORTH BATTLEFORD;NORTH BATTLEFORD;CANADA;52.76916667;-108.2436111;548.3352
CYQX;YQX;GANDER INTERNATIONAL;GANDER;CANADA;48.93694444;-54.56805556;151.1808
CYQY;YQY;SYDNEY;SYDNEY;CANADA;46.16138889;-60.04777778;61.8744
CYQZ;YQZ;QUESNEL;QUESNEL;CANADA;53.02611111;-122.51;545.2872
CYRB;YRB;RESOLUTE BAY;RESOLUTE;CANADA;74.71694444;-94.96944444;65.532
CYRI;YRI;RIVIERE DU LOUP;RIVIERE DU LOUP;CANADA;47.76444444;-69.58472222;130.1496
CYRJ;YRJ;ROBERVAL;ROBERVAL;CANADA;48.52;-72.26555556;178.6128
CYRM;YRM;ROCKY MOUNTAIN HOUSE;ROCKY MOUNTAIN HOUSE;CANADA;52.42972222;-114.9041667;988.1616
CYRT;YRT;RANKIN INLET;RANKIN INLET;CANADA;62.81138889;-92.11583333;28.6512
CYRW;N/A;;TROIS RIVIERE;CANADA;0;0;0
CYSA;N/A;;SABLE ISLAND;CANADA;0;0;0
CYSB;YSB;SUDBURY;SUDBURY;CANADA;46.625;-80.79888889;347.472
CYSC;YSC;SHERBROOKE;SHERBROOKE;CANADA;45.43805556;-71.69055556;241.4016
CYSD;N/A;;SUFFIELD;CANADA;0;0;0
CYSF;YSF;;STONY RAPIDS;CANADA;0;0;0
CYSJ;YSJ;SAINT JOHN;ST. JOHN;CANADA;45.31611111;-65.89027778;108.8136
CYSK;YSK;;SANIKILUAQ;CANADA;0;0;0
CYSM;YSM;FORT SMITH;FORT SMITH;CANADA;60.02222222;-111.9602778;205.1304
CYSR;YSR;NANISIVIK;NANISIVIK;CANADA;72.98222222;-84.61361111;641.9088
CYSS;N/A;;SLATE ISLAND;CANADA;0;0;0
CYSU;YSU;SUMMERSIDE;SUMMERSIDE;CANADA;46.44277778;-63.83111111;17.0688
CYSY;YSY;SACHS HARBOUR;SACHS HARBOUR;CANADA;71.99388889;-125.2425;85.6488
CYTC;N/A;;ETHELDA BAY;CANADA;0;0;0
CYTE;YTE;CAPE DORSET;CAPE DORSET;CANADA;64.23;-76.52666667;49.9872
CYTH;YTH;THOMPSON;THOMPSON;CANADA;55.80111111;-97.86416667;222.1992
CYTL;YTL;;BIG TROUT LAKE;CANADA;0;0;0
CYTR;YTR;TRENTON;TRENTON;CANADA;44.11888889;-77.52805556;86.2584
CYTS;YTS;TIMMINS;TIMMINS;CANADA;48.56972222;-81.37666667;294.7416
CYTZ;YTZ;CITY CENTRE;TORONTO;CANADA;43.6275;-79.39611111;76.5048
CYUA;N/A;;SHINGLE POINT;CANADA;0;0;0
CYUB;YUB;TUKTOYAKTUK;TUKTOYAKTUK;CANADA;69.43333333;-133.0263889;4.572
CYUC;N/A;;NICHOLSON PENINSULAR;CANADA;0;0;0
CYUF;YUF;;PELLY BAY;CANADA;0;0;0
CYUH;N/A;;CLINTON POINT;CANADA;0;0;0
CYUI;N/A;;CAPE YOUNG;CANADA;0;0;0
CYUJ;N/A;;LADY FRANKLIN POINT;CANADA;0;0;0
CYUK;N/A;;BYRON BAY;CANADA;0;0;0
CYUL;YUL;MONTREAL INTERNATIONAL DORVAL;MONTREAL;CANADA;45.46805556;-73.74138889;35.6616
CYUQ;N/A;;JENNY LIND ISLAND;CANADA;0;0;0
CYUR;N/A;;GLADMAN POINT;CANADA;0;0;0
CYUS;N/A;;SHEPHERD BAY;CANADA;0;0;0
CYUT;YUT;REPULSE BAY;REPULSE BAY;CANADA;66.52138889;-86.22472222;24.384
CYUX;YUX;HALL BEACH;HALL BEACH;CANADA;68.77611111;-81.24361111;8.2296
CYUY;YUY;ROUYN NORANDA;ROUYN;CANADA;48.20611111;-78.83555556;301.1424
CYVC;YVC;LA RONGE;LA RONGE;CANADA;55.15138889;-105.2619444;378.5616
CYVG;YVG;VERMILION;VERMILLION;CANADA;53.35583333;-110.8238889;617.22
CYVM;YVM;QIKIQTARJUAQ;BROUGHTON ISLAND;CANADA;67.54583333;-64.03138889;6.4008
CYVN;N/A;;CAPE DYER;CANADA;0;0;0
CYVO;YVO;VAL D OR;VAL D'OR;CANADA;48.05333333;-77.78277778;337.4136
CYVP;YVP;KUUJJUAQ;QUUJJUAQ;CANADA;58.09611111;-68.42694444;39.3192
CYVQ;YVQ;NORMAN WELLS;NORMAN WELLS;CANADA;65.2825;-126.8002778;73.4568
CYVR;YVR;VANCOUVER INTERNATIONAL;VANCOUVER;CANADA;49.195;-123.1819444;4.2672
CYVT;YVT;BUFFALO NARROWS;BUFFALO NARROWS;CANADA;55.84194444;-108.4175;440.1312
CYVV;YVV;WIARTON;WIARTON;CANADA;44.74583333;-81.10722222;222.1992
CYWA;YWA;PETAWAWA;PETAWAWA;CANADA;45.95222222;-77.31916667;130.1496
CYWG;YWG;WINNIPEG INTERNATIONAL;WINNIPEG;CANADA;49.91;-97.23444444;238.6584
CYWK;YWK;WABUSH;WABUSH;CANADA;52.92194444;-66.86444444;551.0784
CYWL;YWL;WILLIAMS LAKE;WILLIAMS LAKE;CANADA;52.18305556;-122.0541667;940.308
CYWO;N/A;;LUPIN;CANADA;0;0;0
CYWR;N/A;;WHITE RIVER;CANADA;0;0;0
CYWY;YWY;WRIGLEY;WRIGLEY;CANADA;63.20944444;-123.4366667;150.2664
CYXC;YXC;CRANBROOK;CRANBROOK;CANADA;49.61027778;-115.7825;939.3936
CYXD;YXD;EDMONTON CITY CENTRE;EDMONTON;CANADA;53.5725;-113.5205556;670.56
CYXE;YXE;SASKATOON J G DIEFENBAKER INTERNATIONAL;SASKATOON;CANADA;52.17083333;-106.6997222;503.8344
CYXH;YXH;MEDICINE HAT;MEDICINE HAT;CANADA;50.01888889;-110.7208333;716.8896
CYXI;N/A;;KILLALOE;CANADA;0;0;0
CYXJ;YXJ;FORT ST JOHN;FORT SAINT JOHN;CANADA;56.23805556;-120.7402778;694.944
CYXL;YXL;SIOUX LOOKOUT;SIOUX LOOKOUT;CANADA;50.11444444;-91.90416667;390.144
CYXN;YXN;;WHALE COVE;CANADA;0;0;0
CYXP;YXP;PANGNIRTUNG;PANGNIRTUNG;CANADA;66.145;-65.71361111;22.86
CYXR;YXR;TIMISKAMING RGNL;EARLTON;CANADA;47.695;-79.84888889;243.2304
CYXS;YXS;PRINCE GEORGE;PRINCE GEORGE;CANADA;53.88944444;-122.6788889;690.9816
CYXT;YXT;TERRACE;TERRACE;CANADA;54.46638889;-128.5775;217.3224
CYXU;YXU;LONDON;LONDON;CANADA;43.03555556;-81.15388889;277.9776
CYXX;YXX;ABBOTSFORD;ABBOTSFORD;CANADA;49.02527778;-122.3633333;57.912
CYXY;YXY;WHITEHORSE INTERNATIONAL;WHITEHORSE;CANADA;60.70944444;-135.0683333;706.2216
CYYB;YYB;NORTH BAY;NORTH BAY;CANADA;46.36361111;-79.42277778;370.332
CYYC;YYC;CALGARY INTERNATIONAL;CALGARY;CANADA;51.11388889;-114.0202778;1084.1736
CYYD;YYD;SMITHERS;SMITHERS;CANADA;54.82472222;-127.1827778;521.8176
CYYE;YYE;FORT NELSON;FORT NELSON;CANADA;58.83638889;-122.5969444;381.9144
CYYF;YYF;PENTICTON;PENTICTON;CANADA;49.46277778;-119.6022222;344.1192
CYYG;YYG;CHARLOTTETOWN;CHARLOTTETOWN;CANADA;46.29;-63.12111111;48.768
CYYH;YYH;TALOYOAK;SPENCE BAY;CANADA;69.54666667;-93.57666667;28.0416
CYYJ;YYJ;VICTORIA INTERNATIONAL;VICTORIA;CANADA;48.64694444;-123.4258333;19.2024
CYYL;YYL;LYNN LAKE;LYNN LAKE;CANADA;56.86388889;-101.0761111;356.616
CYYN;YYN;SWIFT CURRENT;SWIFT CURRENT;CANADA;50.29194444;-107.6905556;816.864
CYYQ;YYQ;CHURCHILL;CHURCHILL;CANADA;58.73916667;-94.065;28.6512
CYYR;YYR;GOOSE BAY;GOOSE BAY;CANADA;53.31916667;-60.42583333;48.768
CYYT;YYT;ST JOHNS INTERNATIONAL;ST. JOHN'S;CANADA;47.61861111;-52.75194444;140.5128
CYYU;YYU;KAPUSKASING;KAPUSKASING;CANADA;49.41388889;-82.4675;226.4664
CYYW;YYW;ARMSTRONG;ARMSTRONG;CANADA;50.29027778;-88.90972222;322.4784
CYYY;YYY;MONT JOLI;MONT JOLI;CANADA;48.60861111;-68.20805556;52.4256
CYYZ;YYZ;LESTER B PEARSON INTERNATIONAL;TORONTO;CANADA;43.67722222;-79.63055556;173.4312
CYZA;N/A;;ASHCROFT;CANADA;0;0;0
CYZD;YZD;DOWNSVIEW;TORONTO;CANADA;43.7425;-79.46555556;198.7296
CYZE;YZE;GORE BAY MANITOULIN;GORE BAY;CANADA;45.88527778;-82.56777778;193.548
CYZF;YZF;YELLOWKNIFE;YELLOWKNIFE;CANADA;62.46277778;-114.4402778;205.74
CYZH;YZH;SLAVE LAKE;SLAVE LAKE;CANADA;55.29333333;-114.7783333;582.7776
CYZP;YZP;SANDSPIT;SANDSPIT;CANADA;53.25416667;-131.8138889;6.4008
CYZR;YZR;CHRIS HADFIELD;SARNIA;CANADA;42.99944444;-82.30888889;181.0512
CYZT;YZT;PORT HARDY;PORT HARDY;CANADA;50.68055556;-127.3666667;21.6408
CYZU;YZU;WHITECOURT;WHITECOURT;CANADA;54.14388889;-115.7866667;782.4216
CYZV;YZV;SEPT ILES;SEPT-ILES;CANADA;50.22333333;-66.26555556;54.864
CYZW;YZW;TESLIN;TESLIN;CANADA;60.17277778;-132.7427778;705.0024
CYZX;YZX;GREENWOOD;GREENWOOD;CANADA;44.98444444;-64.91694444;28.0416
CZFA;ZFA;FARO;FARO;CANADA;62.2075;-133.3758333;716.5848
CZFM;ZFM;FORT MCPHERSON;FORT MCPHERSON;CANADA;67.40777778;-134.8602778;43.2816
CZNB;N/A;;NORTH BAY;CANADA;0;0;0
CZUE;N/A;;CAPE PARRY;CANADA;0;0;0
DABB;AAE;ANNABA;ANNABA;ALGERIA;36.82222222;7.809166667;4.8768
DABC;CZL;MOHAMED BOUDIAF INTERNATIONAL;CONSTANTINE;ALGERIA;36.27666667;6.623888889;690.372
DABP;N/A;;SKIKDA;ALGERIA;0;0;0
DABS;TEE;CHEIKH LARBI TEBESSI;TEBESSA;ALGERIA;35.43138889;8.120555556;811.0728
DABT;N/A;;BATNA;ALGERIA;0;0;0
DADF;N/A;;DARRA-I-SOOF;AFGHANISTAN;0;0;0
DAFH;HRM;HASSI R MEL;TILREMPT;ALGERIA;32.92972222;3.312222222;774.192
DAFI;N/A;;DJELFA;ALGERIA;0;0;0
DAOB;TID;BOU CHEKIF;TIARET;ALGERIA;35.34111111;1.463055556;989.076
DAOC;CBH;;BECHAR;ALGERIA;0;0;0
DAOE;N/A;BOU SFER;BOU SFER;ALGERIA;35.73527778;-0.805277778;56.9976
DAOF;TIN;TINDOUF;TINDOUF;ALGERIA;27.70027778;-8.166944444;442.8744
DAOI;QAS;ECH CHELIFF;ECH-CHELIFF;ALGERIA;36.2125;1.331666667;141.1224
DAOL;TAF;TAFARAOUI;ORAN;ALGERIA;35.54222222;-0.532222222;111.8616
DAON;TLM;ZENATA;TLEMCEN;ALGERIA;35.01666667;-1.45;248.1072
DAOO;ORN;ES SENIA;ORAN;ALGERIA;35.62361111;-0.621111111;89.916
DAOS;N/A;SIDI BEL ABBES;SIDI BEL ABBES;ALGERIA;35.17166667;-0.593055556;491.9472
DAOV;MUW;GHRISS;GHRISS;ALGERIA;35.2075;0.146944444;513.8928
DASM;N/A;;SAMANGAN;AFGHANISTAN;0;0;0
DATG;INF;;IN GUEZZAM;ALGERIA;0;0;0
DATM;BMW;;BORDJ MOKHTAR;ALGERIA;0;0;0
DAUA;AZR;TOUAT CHEIKH SIDI MOHAMED BELKEBIR;ADRAR;ALGERIA;27.8375;-0.186388889;280.1112
DAUB;BSK;BISKRA;BISKRA;ALGERIA;34.79305556;5.738055556;88.0872
DAUE;ELG;EL GOLEA;EL GOLEA;ALGERIA;30.57111111;2.859444444;398.0688
DAUG;GHA;NOUMERATE;GHARDAIA;ALGERIA;32.38388889;3.793888889;460.8576
DAUH;HME;OUED IRARA;HASSI-MESSAOUD;ALGERIA;31.67277778;6.140277778;141.1224
DAUI;INZ;IN SALAH;IN SALAH;ALGERIA;27.25083333;2.511944444;269.1384
DAUK;TGR;SIDI MAHDI;TOUGGOURT;ALGERIA;33.06777778;6.088611111;85.0392
DAUL;LOO;LAGHOUAT;LAGHOUAT;ALGERIA;33.76388889;2.927222222;765.048
DAUT;TMX;TIMIMOUN;TIMIMOUN;ALGERIA;29.23694444;0.275833333;313.0296
DAUU;OGX;OUARGLA;OUARGLA;ALGERIA;31.91722222;5.412777778;149.9616
DAUZ;IAM;IN AMENAS;ZARZAITINE;ALGERIA;28.05138889;9.642777778;562.9656
DBBB;COO;COTONOU CADJEHOUN;COTONOU;BENIN;6.357222222;2.384166667;5.7912
DBBC;N/A;;CANA;BENIN;0;0;0
DBBD;N/A;;DJOUGOU;BENIN;0;0;0
DBBK;KDC;;KANDI;BENIN;0;0;0
DBBN;NAE;;NATITINGOU;BENIN;0;0;0
DBBO;N/A;;PORGA;BENIN;0;0;0
DBBP;PKO;PARAKOU;PARAKOU;BENIN;9.356944444;2.608888889;385.8768
DBBR;N/A;;BEMBEREKE;BENIN;0;0;0
DBBS;N/A;;SAVE;BENIN;0;0;0
DFCA;N/A;;KAYA;BURKINA FASO;0;0;0
DFCB;N/A;;BARSALOGHO;BURKINA FASO;0;0;0
DFCC;OUG;;OUAHIGOUYA;BURKINA FASO;0;0;0
DFCD;N/A;;DIDYR;BURKINA FASO;0;0;0
DFCE;N/A;;BATIE;BURKINA FASO;0;0;0
DFCG;N/A;;KONGOUSSI;BURKINA FASO;0;0;0
DFCI;N/A;;TITAO;BURKINA FASO;0;0;0
DFCJ;N/A;;DJIBO;BURKINA FASO;0;0;0
DFCK;N/A;;KOUDOUGOU;BURKINA FASO;0;0;0
DFCL;N/A;;LEO;BURKINA FASO;0;0;0
DFCM;N/A;;MANGA;BURKINA FASO;0;0;0
DFCO;N/A;;BOROMO;BURKINA FASO;0;0;0
DFCP;N/A;;PO;BURKINA FASO;0;0;0
DFCR;N/A;;POURA;BURKINA FASO;0;0;0
DFCS;N/A;;SEGUENEGA;BURKINA FASO;0;0;0
DFCT;N/A;;TENADO;BURKINA FASO;0;0;0
DFCU;N/A;;GOURCY;BURKINA FASO;0;0;0
DFCY;N/A;;YAKO;BURKINA FASO;0;0;0
DFEA;N/A;;BOULSA;BURKINA FASO;0;0;0
DFEB;N/A;;BOGANDE;BURKINA FASO;0;0;0
DFEC;N/A;;KOMIN-YANGA;BURKINA FASO;0;0;0
DFED;N/A;;DIAPAGA;BURKINA FASO;0;0;0
DFEE;DOR;;DORI;BURKINA FASO;0;0;0
DFEF;FNG;;FADA N'GOURMA;BURKINA FASO;0;0;0
DFEG;XGG;;GOROM GOROM;BURKINA FASO;0;0;0
DFEK;N/A;;KOUPELA;BURKINA FASO;0;0;0
DFEL;XKA;;KANTCHARI;BURKINA FASO;0;0;0
DFEM;N/A;;TAMBAO;BURKINA FASO;0;0;0
DFEO;N/A;;ZORGO;BURKINA FASO;0;0;0
DFEP;N/A;;PAMA;BURKINA FASO;0;0;0
DFER;N/A;;ARLI;BURKINA FASO;0;0;0
DFES;N/A;;SEBBA;BURKINA FASO;0;0;0
DFET;TEG;;TENKODOGO;BURKINA FASO;0;0;0
DFEY;N/A;;OUARGAYE;BURKINA FASO;0;0;0
DFEZ;N/A;;ZABRE;BURKINA FASO;0;0;0
DFFD;OUA;OUAGADOUGOU;OUAGADOUGOU;BURKINA FASO;12.35305556;-1.512222222;316.0776
DFOA;N/A;;DANO;BURKINA FASO;0;0;0
DFOB;BNR;;BANFORA;BURKINA FASO;0;0;0
DFOD;DGU;;DEDOUGOU;BURKINA FASO;0;0;0
DFOF;N/A;;SAFANE;BURKINA FASO;0;0;0
DFOG;XGA;;AMILCAR CABRAL DE GAQUA;BURKINA FASO;0;0;0
DFOH;N/A;;HOUNDE;BURKINA FASO;0;0;0
DFOL;N/A;;LOUMANA;BURKINA FASO;0;0;0
DFON;XNU;;NOUNA;BURKINA FASO;0;0;0
DFOO;BOY;BOBO DIOULASSO;BOBO-DIOULASSO;BURKINA FASO;11.16;-4.330833333;460.5528
DFOR;N/A;;CORODARA;BURKINA FASO;0;0;0
DFOS;N/A;;SIDERADOUGOU;BURKINA FASO;0;0;0
DFOT;N/A;;TOUGAN;BURKINA FASO;0;0;0
DFOU;N/A;;DIEBOUGOU;BURKINA FASO;0;0;0
DFOY;N/A;;ARIBINDA;BURKINA FASO;0;0;0
DGAD;N/A;;ADA;GHANA;0;0;0
DGAH;N/A;;HO;GHANA;0;0;0
DGAK;N/A;;AKUSE;GHANA;0;0;0
DGAL;N/A;;KETE-KRACHI;GHANA;0;0;0
DGAS;N/A;;SALTPOND;GUYANA;0;0;0
DGAT;N/A;;TEMA;GHANA;0;0;0
DGCY;CKY;;CONAKRY;GHANA;0;0;0
DGKA;N/A;;AKIM ODA;GHANA;0;0;0
DGKK;N/A;;KOFORIDUA;GHANA;0;0;0
DGLB;N/A;;BOLE;GHANA;0;0;0
DGLE;TML;TAMALE;TAMALE;GHANA;9.563333333;-0.863333333;168.5544
DGLN;N/A;;NAVRONGO;GHANA;0;0;0
DGLW;N/A;WA;WA;GHANA;10.0825;-2.5075;323.088
DGLY;N/A;;YENDI;GHANA;0;0;0
DGSB;N/A;;SEFWI-BEKWAI;GHANA;0;0;0
DGSN;NYI;SUNYANI;SUNYANI;GHANA;7.361666667;-2.328611111;309.0672
DGSW;N/A;;WENCHI;CHINA;0;0;0
DGTK;TKD;TAKORADI;TAKORADI;GHANA;4.893333333;-1.775;6.4008
DGTX;N/A;;AXIM;GHANA;0;0;0
DGAA;ACC;KOTOKA INTERNATIONAL;ACCRA;GHANA;5.602777778;-0.168055556;62.484
DIAD;N/A;;ADIAKE;IVORY COAST;0;0;0
DIAE;N/A;;AGBOVILLE;IVORY COAST;0;0;0
DIAO;N/A;;ABOISSO;IVORY COAST;0;0;0
DIAP;ABJ;ABIDJAN FELIX HOUPHOUET BOIGNY INTERNATIONAL;ABIDJAN;IVORY COAST;5.259722222;-3.926388889;6.096
DIAU;OGO;;ABENGOUROU;IVORY COAST;0;0;0
DIBC;N/A;;BOCANDA;IVORY COAST;0;0;0
DIBI;BXI;;BOUNDIALI;IVORY COAST;0;0;0
DIBK;BYK;BOUAKE;BOUAKE;IVORY COAST;7.738611111;-5.073611111;374.904
DIBN;BQO;;BUONA;IVORY COAST;0;0;0
DIBU;BDK;;BONDOUKOU;IVORY COAST;0;0;0
DIDB;N/A;;DABOU;IVORY COAST;0;0;0
DIDK;DIM;;DIMBOKRO;IVORY COAST;0;0;0
DIDL;DJO;DALOA;DALOA;IVORY COAST;6.7925;-6.473055556;250.8504
DIDV;N/A;;DIVO;IVORY COAST;0;0;0
DIFK;N/A;;FERKESSEDOUGOU;IVORY COAST;0;0;0
DIGA;GGN;;GAGNOA;IVORY COAST;0;0;0
DIGL;GGO;;GUIGLO;IVORY COAST;0;0;0
DIGN;BBV;;GRAND BEREBY;IVORY COAST;0;0;0
DIKO;HGO;KORHOGO;KORHOGO;IVORY COAST;9.386944444;-5.556388889;369.7224
DIMN;MJC;MAN;MAN;IVORY COAST;7.271944444;-7.586944444;331.9272
DIOD;KEO;;ODIENNE;IVORY COAST;0;0;0
DIOF;OFI;;OUANGO FITINI;IVORY COAST;0;0;0
DIPG;N/A;;PORT GAUTHIER;IVORY COAST;0;0;0
DISG;SEO;;SEGUELA;IVORY COAST;0;0;0
DISP;SPY;SAN PEDRO;SAN PEDRO;IVORY COAST;4.746666667;-6.660555556;7.9248
DISS;ZSS;;SASSANDRA;IVORY COAST;0;0;0
DITB;TXU;;TABOU;IVORY COAST;0;0;0
DITM;TOZ;;TOUBA;IVORY COAST;0;0;0
DIYO;ASK;YAMOUSSOUKRO;YAMOUSSOUKRO;IVORY COAST;6.903055556;-5.365833333;213.0552
DNAK;AKR;AKURE;AKURE;NIGERIA;7.246666667;5.300833333;335.28
DNBE;BNI;BENIN;BENIN;NIGERIA;6.317222222;5.599444444;78.6384
DNBI;N/A;;BIDA;NIGERIA;0;0;0
DNCA;CBQ;CALABAR;CALABAR;NIGERIA;4.975833333;8.346944444;64.3128
DNEN;ENU;ENUGU;ENUGU;NIGERIA;6.474166667;7.561944444;142.0368
DNGU;QUS;GUSAU;GUSAU;NIGERIA;12.17166667;6.696111111;463.296
DNIB;IBA;IBADAN;IBADAN;NIGERIA;7.362222222;3.978333333;220.98
DNIL;ILR;ILORIN;ILORIN;NIGERIA;8.44;4.493888889;342.9
DNJO;JOS;JOS;JOS;NIGERIA;9.639722222;8.868888889;1289.9136
DNKA;KAD;KADUNA;KADUNA;NIGERIA;10.69583333;7.32;631.8504
DNKN;KAN;KANO MALLAM AMINU INTERNATIONAL;KANO;NIGERIA;12.0475;8.524444444;477.012
DNMA;MIU;MAIDUGURI;MAIDUGURI;NIGERIA;11.85527778;13.08083333;335.8896
DNMK;MDI;MAKURDI;MAKURDI;NIGERIA;7.703611111;8.613888889;113.0808
DNMM;LOS;LAGOS MURTALA MUHAMMED;LAGOS;NIGERIA;6.577222222;3.321111111;41.148
DNMN;MXJ;MINNA NEW;MINNA;NIGERIA;9.651944444;6.462222222;254.2032
DNOS;N/A;;OSHOGBO;NIGERIA;0;0;0
DNPO;PHC;PORT HARCOURT INTERNATIONAL;PORT HARTCOURT;NIGERIA;5.015277778;6.949444444;24.6888
DNSO;SKO;SADIQ ABUBAKAR III INTERNATIONAL;SOKOTO;NIGERIA;12.91611111;5.206944444;306.6288
DNYO;YOL;YOLA;YOLA;NIGERIA;9.260277778;12.42972222;182.5752
DNZA;ZAR;ZARIA;ZARIA;NIGERIA;11.13;7.685555556;655.32
DNAA;ABV;ABUJA NNAMDI AZIKIWE INTERNATIONAL;ABUJA;NIGERIA;9.006666667;7.263055556;342.2904
DRRA;N/A;;TESSAOUA;NIGER;0;0;0
DRRC;N/A;;DOGONDOUTCHI;NIGER;0;0;0
DRRD;N/A;;DOSSO;NIGER;0;0;0
DRRE;N/A;;TERA;NIGER;0;0;0
DRRG;N/A;;GAYA;NIGER;0;0;0
DRRI;N/A;;BILMA;NIGER;0;0;0
DRRL;N/A;;TILABERY;NIGER;0;0;0
DRRM;MFG;MARADI;MARADI;NIGER;13.5025;7.126666667;377.952
DRRN;NIM;DIORI HAMANI;NIAMEY;NIGER;13.48138889;2.183611111;223.1136
DRRP;N/A;;LA TAPOA;NIGER;0;0;0
DRRT;THZ;TAHOUA;TAHOUA;NIGER;14.87555556;5.265277778;385.8768
DRRU;N/A;;OUALLAM;NIGER;0;0;0
DRZA;AJY;MANU DAYAK;AGADEZ;NIGER;16.96472222;7.996944444;505.0536
DRZD;N/A;DIRKOU;DIRKOU;NIGER;18.96861111;12.86861111;388.0104
DRZF;N/A;DIFFA;DIFFA;NIGER;13.37277778;12.62666667;302.9712
DRZG;N/A;;GOURE;NIGER;0;0;0
DRZI;N/A;;IFEROUANE;NIGER;0;0;0
DRZL;N/A;;ARLIT;NIGER;0;0;0
DRZM;N/A;;MAINE-SOROA;NIGER;0;0;0
DRZN;N/A;;N'GUIGMI;NIGER;0;0;0
DRZR;ZND;ZINDER;ZINDER;NIGER;13.77888889;8.983611111;459.9432
DRZT;N/A;TANOUT;TANOUT;NIGER;14.99944444;8.766944444;536.1432
DSGI;KMS;;KUMASI;GHANA;0;0;0
DTMB;MIR;HABIB BOURGUIBA INTERNATIONAL;MONASTIR;TUNISIA;35.75805556;10.75472222;2.7432
DTTA;TUN;CARTHAGE;TUNIS;TUNISIA;36.85083333;10.22694444;6.7056
DTTB;N/A;SIDI AHMED AIR BASE;BIZERTE;TUNISIA;37.24527778;9.791388889;6.096
DTTD;N/A;REMADA;REMADA;TUNISIA;32.30611111;10.38194444;306.0192
DTTF;GAF;GAFSA;GAFSA;TUNISIA;34.42194444;8.8225;323.088
DTTG;GAE;GABES;GABES;TUNISIA;33.87666667;10.10333333;7.9248
DTTI;N/A;BORDJ EL AMRI;BORDJ EL AMRI;TUNISIA;36.72111111;9.943055556;33.528
DTTJ;DJE;ZARZIS;DJERBA;TUNISIA;33.875;10.77527778;5.7912
DTTK;N/A;;KAIROUAN;TUNISIA;0;0;0
DTTL;N/A;;KELIBIA;TUNISIA;0;0;0
DTTN;N/A;;JENDOUBA;TUNISIA;0;0;0
DTTR;EBM;EL BORMA;EL BORMA;TUNISIA;31.70416667;9.254444444;252.0696
DTTX;SFA;THYNA;SFAX;TUNISIA;34.71777778;10.69083333;25.908
DTTZ;TOE;NEFTA;TOZEUR;TUNISIA;33.93972222;8.110555556;87.4776
DXAK;N/A;;ATAKPAME;TOGO;0;0;0
DXBS;N/A;;BASSARI;TOGO;0;0;0
DXDP;N/A;;DAPANGO;TOGO;0;0;0
DXHO;N/A;;HAHOTOE;TOGO;0;0;0
DXKP;N/A;;ANIE;TOGO;0;0;0
DXMG;N/A;;SANSANNE MANGO;TOGO;0;0;0
DXNG;LRL;NIAMTOUGOU;NIATOUGOU;TOGO;9.767222222;1.091111111;461.772
DXSK;N/A;;SOKODE;TOGO;0;0;0
DXTA;N/A;;TABLIGBO;TOGO;0;0;0
DXXX;LFW;LOME TOKOIN;LOME;TOGO;6.165555556;1.253888889;21.6408
DAAB;N/A;BLIDA;BLIDA;ALGERIA;36.50361111;2.814166667;163.068
DAAD;N/A;BOU SAADA;BOU SAADA;ALGERIA;35.3325;4.206388889;459.0288
DAAE;BJA;SOUMMAM;BEJAJA;ALGERIA;36.71194444;5.069722222;6.096
DAAF;N/A;;AOULEF;ALGERIA;0;0;0
DAAG;ALG;HOUARI BOUMEDIENE;ALGIER;ALGERIA;36.69083333;3.215277778;24.9936
DAAJ;DJG;TISKA;DJANET;ALGERIA;24.2925;9.452222222;968.0448
DAAK;N/A;BOUFARIK;BOUFARIK;ALGERIA;36.54583333;2.876111111;102.108
DAAM;N/A;TELERGHMA;TELERGMA;ALGERIA;36.10861111;6.364444444;757.1232
DAAN;N/A;REGGANE;REGGAN;ALGERIA;26.71;0.285555556;291.084
DAAP;VVZ;ILLIZI;ILLIZI;ALGERIA;26.57333333;8.483611111;541.9344
DAAQ;N/A;AIN OUSSERA;AIN OUSSERA;ALGERIA;35.52527778;2.878611111;649.8336
DAAS;GSF;SETIF AIN ARNAT;SETIF;ALGERIA;36.17805556;5.324444444;1024.128
DAAT;TMR;TAMANRASSET;TAMANRASSET;ALGERIA;22.81083333;5.450833333;1377.0864
DAAV;GJL;JIJEL;JIJEL;ALGERIA;36.795;5.873333333;10.0584
DAAW;N/A;;BORDJ OMAR DRISS;ALGERIA;0;0;0
DAAX;N/A;;CHERAGAS;ALGERIA;0;0;0
DAAY;N/A;MECHERIA;MECHERIA;ALGERIA;33.53583333;-0.242222222;1175.004
DAAZ;N/A;RELIZANE;RELIZANE;ALGERIA;35.75222222;0.626111111;85.9536
EBAM;N/A;;AMOUGIES;BELGIUM;0;0;0
EBAW;ANR;DEURNE;ANTWERP;BELGIUM;51.19;4.462777778;11.8872
EBBE;N/A;BEAUVECHAIN;BEAUVECHAIN;BELGIUM;50.75861111;4.768333333;112.776
EBBL;N/A;KLEINE BROGEL;KLEINE BROGEL;BELGIUM;51.16777778;5.470833333;60.96
EBBR;BRU;BRUSSELS NATL;BRUSSELS;BELGIUM;50.90222222;4.498611111;56.0832
EBBT;N/A;BRAASCHAAT;BRASSCHAAT;BELGIUM;51.33333333;4.5;21.336
EBBX;N/A;BERTRIX JEHONVILLE;BERTRIX;BELGIUM;49.88722222;5.228611111;461.4672
EBCI;CRL;BRUSSELS SOUTH;CHARLEROI;BELGIUM;50.45916667;4.453611111;187.1472
EBCV;N/A;CHIEVRES AB;CHIEVRES;BELGIUM;50.57583333;3.830833333;60.96
EBFN;N/A;KOKSIJDE;KOKSIJDE;BELGIUM;51.09;2.652777778;6.096
EBFS;N/A;FLORENNES;FLORENNES;BELGIUM;50.24361111;4.648611111;284.988
EBGB;N/A;;BRUSSELS;BELGIUM;0;0;0
EBGL;N/A;;GLONS;BELGIUM;0;0;0
EBHN;N/A;;HOEVENEN;BELGIUM;0;0;0
EBKH;N/A;;BALEN;BELGIUM;0;0;0
EBKT;QKT;WEVELGEM;KORTRIJK-VEVELGEM;BELGIUM;50.81777778;3.208333333;18.8976
EBLB;N/A;;ELSENBORN;BELGIUM;0;0;0
EBLG;LGG;LIEGE;LIEGE;BELGIUM;50.63722222;5.443055556;200.8632
EBMB;N/A;;MELSBROEK;BELGIUM;0;0;0
EBMO;N/A;;MOORSELE;BELGIUM;0;0;0
EBMT;N/A;;MUNTE;BELGIUM;0;0;0
EBNM;N/A;;NAMUR-SUARLEE;BELGIUM;0;0;0
EBOS;OST;OOSTENDE;OSTEND;BELGIUM;51.19888889;2.862222222;3.9624
EBSH;N/A;;ST.-HUBERT;BELGIUM;0;0;0
EBSL;N/A;ZUTENDAAL;ZUTENDAAL;BELGIUM;50.94833333;5.591666667;95.0976
EBSP;N/A;;SPA;BELGIUM;0;0;0
EBST;N/A;ST TRUIDEN;SINT-TRUIDEN;BELGIUM;50.78833333;5.192777778;74.9808
EBSU;N/A;;ST.-HUBERT;BELGIUM;0;0;0
EBSZ;N/A;;SEMMERZAKE;BELGIUM;0;0;0
EBTN;N/A;;GOETSENHOVE;BELGIUM;0;0;0
EBTX;N/A;;THEUX-VERVIERS;BELGIUM;0;0;0
EBTY;N/A;;TOURNAY;BELGIUM;0;0;0
EBUL;N/A;URSEL;URSEL;BELGIUM;51.14388889;3.474166667;28.956
EBWE;N/A;WEELDE;WEELDE;BELGIUM;51.395;4.960555556;32.004
EBZH;N/A;;HASSELT;BELGIUM;0;0;0
EBZR;N/A;ZOERSEL;ZOERSEL;BELGIUM;51.26555556;4.754722222;16.1544
EBZW;N/A;;GENK;BELGIUM;0;0;0
EDAB;BBJ;BAUTZEN;BAUTZEN;GERMANY;51.19333333;14.51972222;173.1264
EDAC;AOC;ALTENBURG NOBITZ;ALTENBURG;GERMANY;50.98166667;12.50611111;195.072
EDAD;N/A;DESSAU;DESSAU;GERMANY;51.83194444;12.18583333;56.9976
EDAE;N/A;EISENHUTTENSTADT;EISENHUETTENSTADT;GERMANY;52.19722222;14.58555556;45.4152
EDAF;N/A;;FRANKFURT;GERMANY;0;0;0
EDAG;N/A;;GROSSRUECKERSWALDE;GERMANY;0;0;0
EDAH;N/A;HERINGSDORF;HERINGSDORF;GERMANY;53.87861111;14.15222222;28.3464
EDAJ;N/A;;GERA;GERMANY;0;0;0
EDAK;N/A;GROSSENHAIN;SUHL;GERMANY;51.30805556;13.55472222;127.1016
EDAL;N/A;;FUERSTWALDE;GERMANY;0;0;0
EDAM;N/A;MERSEBURG;MUEHLHAUSEN;GERMANY;51.36277778;11.94083333;103.632
EDAN;N/A;;NEUSTADT;GERMANY;0;0;0
EDAO;N/A;;NORDHAUSEN;GERMANY;0;0;0
EDAP;N/A;;NEUHAUSEN;GERMANY;0;0;0
EDAQ;N/A;HALLE OPPIN;HALLE;GERMANY;51.55194444;12.0525;105.7656
EDAR;N/A;;PIRNA;GERMANY;0;0;0
EDAT;N/A;;NARDT;GERMANY;0;0;0
EDAU;N/A;RIESA GOHLIS;RIESA;GERMANY;51.29444444;13.35888889;98.1456
EDAW;N/A;;ROITZSCHJORA;GERMANY;0;0;0
EDAX;N/A;RECHLIN LARZ;RECHLIN-LAERZ;GERMANY;53.30638889;12.75305556;67.056
EDAY;N/A;STRAUSBERG;STRAUSBERG;GERMANY;52.57972222;13.91555556;80.1624
EDAZ;N/A;SCHONHAGEN;SCHOENHAGEN;GERMANY;52.20333333;13.15861111;39.9288
EDBA;N/A;;ALKERSLEBEN;GERMANY;0;0;0
EDBB;N/A;;BERLIN ACC/FIC;GERMANY;0;0;0
EDBC;N/A;COCHSTEDT SCHNEIDLINGEN;COCHSTEDT;GERMANY;51.85583333;11.41805556;181.6608
EDBD;N/A;;DEDELOW;GERMANY;0;0;0
EDBF;N/A;;FEHRBELLIN;GERMANY;0;0;0
EDBG;GWW;GOLDSBORO WAYNE MUNI;GOTHA OST;GERMANY;35.46055556;-77.96472222;40.8432
EDBH;N/A;BARTH;BARTH;GERMANY;54.33805556;12.71;7.0104
EDBI;N/A;;ZWICKAU;GERMANY;0;0;0
EDBJ;N/A;JENA SCHONGLEINA;JENA;GERMANY;50.91722222;11.71361111;37.4904
EDBK;N/A;KYRITZ;KYRITZ;GERMANY;52.91861111;12.42527778;39.624
EDBL;N/A;;BAD LANGENSALZA;GERMANY;0;0;0
EDBM;N/A;MAGDEBURG;MAGDEBURG;GERMANY;52.07361111;11.62638889;81.3816
EDBN;N/A;BRANDIS WALDPOLENZ;NEUBRANDENBURG;GERMANY;51.32805556;12.65666667;163.068
EDBO;N/A;;OEHNA;GERMANY;0;0;0
EDBP;N/A;;SCHWERIN;GERMANY;0;0;0
EDBR;N/A;ROTHENBURG GORLITZ;ROTHENBURG/OL;GERMANY;51.36444444;14.95194444;157.5816
EDBS;N/A;;SOEMMERDA;GERMANY;0;0;0
EDBX;N/A;;GOERLITZ;GERMANY;0;0;0
EDCA;N/A;ANKLAM;ANKLAM;GERMANY;53.8325;13.66888889;5.4864
EDCB;N/A;;BALLENSTEDT;GERMANY;0;0;0
EDCD;N/A;COTTBUS DREWITZ;COTTBUS;GERMANY;51.88944444;14.53166667;83.5152
EDCE;N/A;;EGGERSDORF;GERMANY;0;0;0
EDCF;N/A;;FRIEDERSDORF;GERMANY;0;0;0
EDCG;N/A;;GUETTIN;GERMANY;0;0;0
EDCI;N/A;;KLIX;GERMANY;0;0;0
EDCJ;N/A;;CHEMNITZ;GERMANY;0;0;0
EDCK;N/A;KOTHEN;KOETHEN;GERMANY;51.72111111;11.96166667;92.6592
EDCM;N/A;KAMENZ;KAMENZ;GERMANY;51.29611111;14.12888889;150.876
EDCN;N/A;;NAUEN;GERMANY;0;0;0
EDCQ;N/A;;ASCHERSLEBEN;GERMANY;0;0;0
EDCR;N/A;;RERIK;GERMANY;0;0;0
EDCS;N/A;;SAARMUND;GERMANY;0;0;0
EDCU;N/A;;GUESTROW;GERMANY;0;0;0
EDCV;N/A;;PASEWALK;GERMANY;0;0;0
EDCW;N/A;;WISMAR;GERMANY;0;0;0
EDCX;N/A;;PURKSHOF;GERMANY;0;0;0
EDDB;SXF;SCHONEFELD;BERLIN;GERMANY;52.38;13.5225;47.8536
EDDC;DRS;DRESDEN;DRESDEN;GERMANY;51.1325;13.76694444;230.124
EDDD;N/A;;FRANKFURT;GERMANY;0;0;0
EDDE;ERF;ERFURT;ERFURT;GERMANY;50.98;10.95805556;315.1632
EDDF;FRA;FRANKFURT MAIN;FRANKFURT;GERMANY;50.02638889;8.543055556;110.9472
EDDG;FMO;MUNSTER OSNABRUCK;MUENSTER/OSNABRUECK;GERMANY;52.13444444;7.684722222;48.4632
EDDH;HAM;HAMBURG;HAMBURG;GERMANY;53.63027778;9.988055556;16.1544
EDDI;THF;TEMPELHOF;BERLIN;GERMANY;52.47277778;13.40388889;49.6824
EDDK;CGN;KOLN BONN;COLOGNE;GERMANY;50.86583333;7.1425;92.0496
EDDL;DUS;DUSSELDORF;DUESSELDORF;GERMANY;51.28944444;6.766666667;44.8056
EDDM;MUC;MUNICH;MUNICH;GERMANY;48.35361111;11.78583333;453.2376
EDDN;NUE;NURNBERG;NUERNBERG;GERMANY;49.49861111;11.07805556;318.8208
EDDP;LEJ;LEIPZIG HALLE;LEIPZIG;GERMANY;51.42388889;12.23611111;141.732
EDDR;SCN;SAARBRUCKEN;SAARBRUECKEN;GERMANY;49.21444444;7.109444444;322.1736
EDDS;STR;STUTTGART;STUTTGART;GERMANY;48.68972222;9.221944444;388.9248
EDDT;TXL;TEGEL;BERLIN;GERMANY;52.55944444;13.2875;37.1856
EDDV;HAJ;HANNOVER;HANNOVER;GERMANY;52.46083333;9.685;55.7784
EDDW;BRE;BREMEN;BREMEN;GERMANY;53.0475;8.786666667;4.2672
EDDZ;N/A;;FRANKFURT;GERMANY;0;0;0
EDEH;N/A;;HERRENTEICH;GERMANY;0;0;0
EDEL;N/A;;LANGENLONSHEIM;GERMANY;0;0;0
EDEM;N/A;;MOSENBERG;GERMANY;0;0;0
EDEN;N/A;;NIEDERSTETEN;GERMANY;0;0;0
EDEW;N/A;;WALLDUERN;GERMANY;0;0;0
EDFA;N/A;;ANSPACH;GERMANY;0;0;0
EDFB;N/A;;REICHELSHEIM;GERMANY;0;0;0
EDFC;N/A;;ASCHAFFENBURG;GERMANY;0;0;0
EDFD;N/A;;BAD NEUSTADT;GERMANY;0;0;0
EDFE;N/A;EGELSBACH;EGELSBACH;GERMANY;49.96083333;8.643611111;117.0432
EDFF;N/A;;FRANKFURT ACC/FIC;GERMANY;0;0;0
EDFG;N/A;;GELNHAUSEN;GERMANY;0;0;0
EDFH;HHN;FRANKFURT HAHN;HAHN;GERMANY;49.94972222;7.263888889;502.6152
EDFI;N/A;;HIRZENHAIN;GERMANY;0;0;0
EDFJ;N/A;;LAGER HAMMELBURG;GERMANY;0;0;0
EDFK;N/A;;BAD KISSINGEN;GERMANY;0;0;0
EDFL;N/A;;GIESSEN;GERMANY;0;0;0
EDFM;MHG;MANNHEIM CITY;MANNHEIM;GERMANY;49.4725;8.513611111;94.1832
EDFN;N/A;;MARBURG;GERMANY;0;0;0
EDFO;N/A;;MICHELSTADT;GERMANY;0;0;0
EDFP;N/A;;OBER-MOERLEN;GERMANY;0;0;0
EDFQ;N/A;ALLENDORF EDER;ALLENDORF;GERMANY;51.03527778;8.678888889;355.3968
EDFR;N/A;;ROTHENBURG O.D.T.;GERMANY;0;0;0
EDFS;N/A;;SCHWEINFURT;GERMANY;0;0;0
EDFT;N/A;;LAUTERBACH;GERMANY;0;0;0
EDFU;N/A;;MAINBULLAU;GERMANY;0;0;0
EDFV;N/A;WORMS;WORMS;GERMANY;49.60638889;8.368333333;89.916
EDFW;N/A;;WUERZBURG;GERMANY;0;0;0
EDFX;N/A;;HOCKENHEIM;GERMANY;0;0;0
EDFY;N/A;;ELZ;GERMANY;0;0;0
EDFZ;N/A;MAINZ FINTHEN;MAINZ;GERMANY;49.96888889;8.1475;231.648
EDGA;N/A;;AILERTCHEN;GERMANY;0;0;0
EDGB;N/A;;BREITSCHEID;GERMANY;0;0;0
EDGE;N/A;EISENACH KINDEL;EISENACH;GERMANY;50.99277778;10.4725;335.5848
EDGF;N/A;;FULDA;GERMANY;0;0;0
EDGH;N/A;;HETTSTADT;GERMANY;0;0;0
EDGI;N/A;;INGELFINGEN;GERMANY;0;0;0
EDGJ;N/A;;OCHSENFURT;GERMANY;0;0;0
EDGK;N/A;;KORBACH;GERMANY;0;0;0
EDGL;N/A;;LUDWIGSHAFEN;GERMANY;0;0;0
EDGM;N/A;;MOOSBACH;GERMANY;0;0;0
EDGN;N/A;;NORDENBECK;GERMANY;0;0;0
EDGO;N/A;;OEDHEIM;GERMANY;0;0;0
EDGP;N/A;;OPPENHEIM;GERMANY;0;0;0
EDGQ;N/A;;SCHAMEDER;GERMANY;0;0;0
EDGR;N/A;;GIESSEN;GERMANY;0;0;0
EDGS;N/A;SIEGERLAND;SIEGERLAND;GERMANY;50.7075;8.081944444;599.2368
EDGT;N/A;;BOTTENHORN;GERMANY;0;0;0
EDGU;N/A;;UNTERSCHUEPF;GERMANY;0;0;0
EDGW;N/A;;WOLFHAGEN;GERMANY;0;0;0
EDGX;N/A;;WALLDORF;GERMANY;0;0;0
EDGZ;N/A;;WEINHEIM/BERGSTRASSE;GERMANY;0;0;0
EDHB;N/A;;GRUBE;GERMANY;0;0;0
EDHC;N/A;;LUECHOW;GERMANY;0;0;0
EDHE;N/A;;UETERSEN;GERMANY;0;0;0
EDHI;XFW;HAMBURG FINKENWERDER;HAMBURG;GERMANY;53.53527778;9.835277778;5.4864
EDHJ;N/A;;ITZEHOE;GERMANY;0;0;0
EDHK;KEL;KIEL HOLTENAU;KIEL;GERMANY;54.37944444;10.145;30.7848
EDHL;LBC;LUBECK BLANKENSEE;LUEBECK;GERMANY;53.80527778;10.71916667;16.4592
EDHM;N/A;;HARTENHOLM;GERMANY;0;0;0
EDHN;N/A;;NEUMUENSTER;GERMANY;0;0;0
EDHO;N/A;;AHRENLOHE;GERMANY;0;0;0
EDHS;N/A;;STADE;GERMANY;0;0;0
EDHU;N/A;;LAUENBRUECK;GERMANY;0;0;0
EDHW;N/A;;WAHLSTEDT;GERMANY;0;0;0
EDHX;N/A;;BAD BRAMSTEDT;GERMANY;0;0;0
EDII;N/A;;AUGSBURG;GERMANY;0;0;0
EDKA;AAH;AACHEN MERZBRUCK;AACHEN;GERMANY;50.82277778;6.187222222;189.8904
EDKB;N/A;;BONN;GERMANY;0;0;0
EDKD;N/A;;ALTENA;GERMANY;0;0;0
EDKF;N/A;;BERGNEUSTADT;GERMANY;0;0;0
EDKH;N/A;;HUENSBORN;GERMANY;0;0;0
EDKI;N/A;;BETZDORF;GERMANY;0;0;0
EDKL;N/A;;LEVERKUSEN;GERMANY;0;0;0
EDKM;N/A;;MESCHEDE;GERMANY;0;0;0
EDKN;N/A;;WIPPERFUERTH;GERMANY;0;0;0
EDKO;N/A;;BRILON;GERMANY;0;0;0
EDKP;N/A;;PLETTENBERG;GERMANY;0;0;0
EDKR;N/A;;SCHMALLENBERG;GERMANY;0;0;0
EDKU;N/A;;ATTENDORN;GERMANY;0;0;0
EDKV;N/A;DAHLEMER BINZ;DAHLEMER BINZ;GERMANY;50.40583333;6.528055556;577.9008
EDKW;N/A;;WERDOHL;GERMANY;0;0;0
EDKZ;N/A;MEINERZHAGEN;MEINERZHAGEN;GERMANY;51.09944444;7.601944444;471.8304
EDLA;ZCA;ARNSBERG MENDEN;ARNSBERG;GERMANY;51.48333333;7.899166667;242.0112
EDLB;N/A;;BORKENBERGE;GERMANY;0;0;0
EDLC;N/A;KAMP LINTFORT;KAMP;GERMANY;51.53027778;6.536944444;2.7432
EDLD;N/A;;DINSLAKEN;GERMANY;0;0;0
EDLE;ESS;ESSEN MULHEIM;ESSEN;GERMANY;51.40138889;6.935833333;129.2352
EDLF;N/A;;GREFRATH;GERMANY;0;0;0
EDLH;N/A;;HAMM;GERMANY;0;0;0
EDLI;N/A;;BIELEFELD;GERMANY;0;0;0
EDLK;N/A;;KREFELD;GERMANY;0;0;0
EDLL;N/A;;DUESSELDORF ACC/FIC;GERMANY;0;0;0
EDLM;N/A;;MARL;GERMANY;0;0;0
EDLN;MGL;MONCHENGLADBACH;MOENCHENGLADBACH;GERMANY;51.23027778;6.504444444;38.1
EDLO;N/A;;OERLINGHAUSEN;GERMANY;0;0;0
EDLP;PAD;PADERBORN LIPPSTADT;PADERBORN;GERMANY;51.61416667;8.616111111;213.0552
EDLR;N/A;;PADERBORN;GERMANY;0;0;0
EDLS;N/A;STADTLOHN VREDEN;STADTLOHN;GERMANY;51.99583333;6.840277778;47.8536
EDLT;N/A;;MUENSTER;GERMANY;0;0;0
EDLW;DTM;DORTMUND;DORTMUND;GERMANY;51.51805556;7.612222222;129.2352
EDLX;N/A;;WESEL;GERMANY;0;0;0
EDLY;N/A;;BORKEN;GERMANY;0;0;0
EDLZ;N/A;;SOEST;GERMANY;0;0;0
EDMA;AGB;AUGSBURG;AUGSBURG;GERMANY;48.425;10.93166667;461.772
EDMB;N/A;BIBERACH AN DER RISS;BIBERACH;GERMANY;48.11083333;9.762777778;580.0344
EDMC;N/A;;BLAUBEUREN;GERMANY;0;0;0
EDMD;N/A;;DACHAU;GERMANY;0;0;0
EDME;N/A;EGGENFELDEN;EGGENFELDEN;GERMANY;48.39611111;12.72361111;409.0416
EDMF;N/A;;FUERSTENZELL;GERMANY;0;0;0
EDMG;N/A;;GUENZBURG;GERMANY;0;0;0
EDMH;N/A;;GUNZENHAUSEN;GERMANY;0;0;0
EDMI;N/A;;ILLERTISSEN;GERMANY;0;0;0
EDMJ;N/A;;JESENWANG;GERMANY;0;0;0
EDMK;N/A;;KEMPTEN;GERMANY;0;0;0
EDML;N/A;;LANDSHUT;GERMANY;0;0;0
EDMM;N/A;;MUENCHEN ACC/FIC;GERMANY;0;0;0
EDMN;N/A;;MINDELHEIM;GERMANY;0;0;0
EDMO;OBF;OBERPFAFFENHOFEN;OBERPFAFFENHOFEN;GERMANY;48.08138889;11.28333333;593.4456
EDMP;N/A;;VILSBIBURG;GERMANY;0;0;0
EDMQ;N/A;;DONAUWOERTH;GERMANY;0;0;0
EDMR;N/A;;MUENCHEN;GERMANY;0;0;0
EDMS;N/A;STRAUBING;STRAUBING;GERMANY;48.90083333;12.51805556;321.2592
EDMT;N/A;;TANNHEIM;GERMANY;0;0;0
EDMV;N/A;VILSHOFEN;VILSHOFEN;GERMANY;48.63638889;13.19527778;302.0568
EDMW;N/A;;DEGGENDORF;GERMANY;0;0;0
EDMX;N/A;;OBERSCHLEISSHEIM;GERMANY;0;0;0
EDMY;N/A;;MUEHLDORF;GERMANY;0;0;0
EDNA;N/A;;AMPFING;GERMANY;0;0;0
EDNB;N/A;;ARNBRUCK;GERMANY;0;0;0
EDNC;N/A;;BEILINGRIES;GERMANY;0;0;0
EDND;N/A;;DINKELSBUEHL;GERMANY;0;0;0
EDNE;N/A;;ERBACH;GERMANY;0;0;0
EDNG;N/A;;GIENGEN;GERMANY;0;0;0
EDNH;N/A;;BAD WOERISHOFEN;GERMANY;0;0;0
EDNJ;N/A;;NEUBURG;GERMANY;0;0;0
EDNK;N/A;;KIRCHDORF/INN;GERMANY;0;0;0
EDNL;N/A;LEUTKIRCH UNTERZEIL;LEUTKIRCH;GERMANY;47.85888889;10.01444444;639.7752
EDNM;N/A;;NITTENAU;GERMANY;0;0;0
EDNO;N/A;;NOERDLINGEN;GERMANY;0;0;0
EDNP;N/A;;PFARRKIRCHEN;GERMANY;0;0;0
EDNQ;N/A;;BOPFINGEN;GERMANY;0;0;0
EDNR;N/A;;REGENSBURG;GERMANY;0;0;0
EDNS;N/A;;SCHWABMUENCHEN;GERMANY;0;0;0
EDNT;N/A;;TREUCHTLINGEN;GERMANY;0;0;0
EDNU;N/A;;THANNHAUSEN;GERMANY;0;0;0
EDNV;N/A;;VOGTAREUTH;GERMANY;0;0;0
EDNW;N/A;;WEISSENHORN;GERMANY;0;0;0
EDNY;FDH;FRIEDRICHSHAFEN;FRIEDRICHSHAFEN;GERMANY;47.67111111;9.511388889;416.6616
EDOA;N/A;;AUERBACH;GERMANY;0;0;0
EDOB;N/A;;BAD BERKA;GERMANY;0;0;0
EDOC;N/A;;GARDELEGEN;GERMANY;0;0;0
EDOD;N/A;;REINSDORF;GERMANY;0;0;0
EDOE;N/A;;BOHLEN;GERMANY;0;0;0
EDOG;N/A;;GRANSEE;GERMANY;0;0;0
EDOI;N/A;;BIENENFARM;GERMANY;0;0;0
EDOJ;N/A;;LUESSE;GERMANY;0;0;0
EDOK;N/A;;RUOLFSTADT;GERMANY;0;0;0
EDOL;N/A;;OSCHERSLEBEN;GERMANY;0;0;0
EDOP;SZW;SCHWERIN PARCHIM;PARCHIM;GERMANY;53.42694444;11.78333333;50.5968
EDOQ;N/A;;OSCHATZ;GERMANY;0;0;0
EDOR;N/A;;ROSTOCK;GERMANY;0;0;0
EDOS;N/A;;PENEWITZ;GERMANY;0;0;0
EDOT;N/A;;GREIZ;GERMANY;0;0;0
EDOV;N/A;STENDAL BORSTEL;STENDAL;GERMANY;52.62888889;11.81972222;56.0832
EDOW;N/A;;WAREN;GERMANY;0;0;0
EDOZ;N/A;;SCHOENBECK;GERMANY;0;0;0
EDPA;N/A;AALEN HEIDENHEIM ELCHINGEN;AALEN-HEIDENHEIM;GERMANY;48.77777778;10.26444444;583.9968
EDPB;N/A;;BAD DITZENBACH;GERMANY;0;0;0
EDPD;N/A;;DINGOLFING;GERMANY;0;0;0
EDPE;N/A;;EICHSTAETT;GERMANY;0;0;0
EDPF;N/A;;SCHWANDORF;GERMANY;0;0;0
EDPG;N/A;;GRIESAU;GERMANY;0;0;0
EDPH;N/A;;SCHWABACH;GERMANY;0;0;0
EDPI;N/A;;INGOLSTADT;GERMANY;0;0;0
EDPJ;N/A;;LAICHINGEN;GERMANY;0;0;0
EDPK;N/A;;MOOSBURG;GERMANY;0;0;0
EDPM;N/A;;DONZDORF;GERMANY;0;0;0
EDPN;N/A;;NEUBIBERG;GERMANY;0;0;0
EDPO;N/A;;NEUMARKT;GERMANY;0;0;0
EDPQ;N/A;;SCHMIDGADEN;GERMANY;0;0;0
EDPS;N/A;;SONNEN;GERMANY;0;0;0
EDPT;N/A;;GERSTETTEN;GERMANY;0;0;0
EDQB;N/A;;BAD WINDSHEIM;GERMANY;0;0;0
EDQC;N/A;COBURG BRANDENSTEINSEBENE;COBURG;GERMANY;50.2625;10.99583333;454.4568
EDQD;BYU;BAYREUTH;BAYREUTH;GERMANY;49.98416667;11.63833333;487.9848
EDQE;N/A;BURG FEUERSTEIN;BURG FEUERSTEIN;GERMANY;49.79416667;11.13222222;510.2352
EDQF;N/A;;ANSBACH;GERMANY;0;0;0
EDQH;N/A;;HERZOGENAURACH;GERMANY;0;0;0
EDQI;N/A;;LAUF;GERMANY;0;0;0
EDQK;N/A;;KULMBACH;GERMANY;0;0;0
EDQL;N/A;;LICHTENFELS;GERMANY;0;0;0
EDQM;HOQ;HOF PLAUEN;HOF;GERMANY;50.28861111;11.85472222;596.7984
EDQN;N/A;;NEUSTADT;GERMANY;0;0;0
EDQO;N/A;;OTTERGRUENER HEIDE;GERMANY;0;0;0
EDQP;N/A;ROSENTHAL FIELD PLOSSEN;ROSENTHAL;GERMANY;49.86277778;11.78777778;455.9808
EDQR;N/A;;EBERN;GERMANY;0;0;0
EDQT;N/A;HASSFURT SCHWEINFURT;HASSFURT;GERMANY;50.01777778;10.52944444;218.8464
EDQW;N/A;;WEIDEN;GERMANY;0;0;0
EDQX;N/A;;HETZLESER BERG;GERMANY;0;0;0
EDQY;N/A;;COBURG;GERMANY;0;0;0
EDQZ;N/A;;PEGNITZ;GERMANY;0;0;0
EDRA;N/A;;BAD NAUENAHR;GERMANY;0;0;0
EDRD;N/A;;NEUMAGEN;GERMANY;0;0;0
EDRF;N/A;;BAD DUERKHEIM;GERMANY;0;0;0
EDRG;N/A;;IDAR OBERSTEIN;GERMANY;0;0;0
EDRH;N/A;;HOPPSTAEDTEN;GERMANY;0;0;0
EDRI;N/A;;LINKENHEIM;GERMANY;0;0;0
EDRJ;N/A;;SAARLOUIS;GERMANY;0;0;0
EDRK;ZNV;KOBLENZ WINNINGEN;KOBLENZ;GERMANY;50.32472222;7.530833333;195.072
EDRL;N/A;;LACHEN;GERMANY;0;0;0
EDRM;N/A;;TRABEN-TRARBACH;GERMANY;0;0;0
EDRN;N/A;;NANNHAUSEN;GERMANY;0;0;0
EDRO;N/A;;SCHWEIGHOFEN;GERMANY;0;0;0
EDRP;N/A;;PIRMASENS;GERMANY;0;0;0
EDRS;N/A;;SOBERNHEIM;GERMANY;0;0;0
EDRT;ZQF;TRIER FOHREN;TRIER;GERMANY;49.86333333;6.788888889;202.692
EDRW;N/A;;DIERDORF;GERMANY;0;0;0
EDRY;ZQC;SPEYER;SPEYER;GERMANY;49.3025;8.451111111;95.0976
EDRZ;N/A;ZWEIBRUCKEN;ZWEIBRUECKEN;GERMANY;49.20944444;7.400555556;345.3384
EDSA;N/A;;ALBSTADT;GERMANY;0;0;0
EDSH;N/A;;BACKNANG;GERMANY;0;0;0
EDSI;N/A;;BINNINGEN;GERMANY;0;0;0
EDSK;N/A;;KEHL;GERMANY;0;0;0
EDSL;N/A;;BLUMBERG;GERMANY;0;0;0
EDSW;N/A;;ALTDORF;GERMANY;0;0;0
EDSZ;N/A;;ROTTWEIL;GERMANY;0;0;0
EDTB;ZCC;BADEN OOS;BADEN-BADEN;GERMANY;48.79111111;8.186944444;123.444
EDTC;N/A;;BRUCHSAL;GERMANY;0;0;0
EDTD;ZQL;DONAUESCHINGEN VILLINGEN;DONAUESCHINGEN;GERMANY;47.97305556;8.522222222;680.0088
EDTF;N/A;FREIBURG;FREIBURG;GERMANY;48.02027778;7.833611111;243.5352
EDTH;N/A;;HEUBACH;GERMANY;0;0;0
EDTK;N/A;KARLSRUHE FORCHHEIM;KARLSRUHE;GERMANY;48.98222222;8.333333333;115.824
EDTM;N/A;MENGEN HOHENTENGEN;MENGEN;GERMANY;48.05361111;9.372777778;554.736
EDTN;N/A;;NABERN;GERMANY;0;0;0
EDTO;N/A;;OFFENBURG;GERMANY;0;0;0
EDTP;N/A;;PFULLENDORF;GERMANY;0;0;0
EDTR;N/A;;HERTEN;GERMANY;0;0;0
EDTS;N/A;;SCHWENNINGEN;GERMANY;0;0;0
EDTU;N/A;;SAULGAU;GERMANY;0;0;0
EDTW;N/A;;WINZELN;GERMANY;0;0;0
EDTX;N/A;;SCHWAEBISCH HALL;GERMANY;0;0;0
EDTY;N/A;SCHWABISCH HALL HESSENTAL;SCHWAEBISCH HALL;GERMANY;49.11805556;9.777222222;399.288
EDTZ;N/A;;KONSTANZ;GERMANY;0;0;0
EDUH;N/A;;HILDESHEIM;GERMANY;0;0;0
EDUS;N/A;FINSTERWALDE SCHACKSDORF;SOEST;GERMANY;51.6075;13.73777778;121.6152
EDUU;N/A;;RHEIN UAC;GERMANY;0;0;0
EDVA;N/A;;BAD GANDERSHEIM;GERMANY;0;0;0
EDVB;N/A;;BRAUNSCHWEIG LBA;GERMANY;0;0;0
EDVC;N/A;;CELLE;GERMANY;0;0;0
EDVE;BWE;BRAUNSCHWEIG;BRAUNSCHWEIG;GERMANY;52.31916667;10.55611111;90.2208
EDVF;N/A;;BLOMBERG;GERMANY;0;0;0
EDVG;N/A;;MENGERINGHAUSEN;GERMANY;0;0;0
EDVH;N/A;;HODENHAGEN;GERMANY;0;0;0
EDVI;N/A;;HOEXTER;GERMANY;0;0;0
EDVK;KSF;KASSEL CALDEN;KASSEL;GERMANY;51.40833333;9.3775;276.7584
EDVL;N/A;;HOELLEBERG;GERMANY;0;0;0
EDVM;N/A;HILDESHEIM;HILDESHEIM;GERMANY;52.1775;9.945555556;89.3064
EDVN;N/A;;NORTHEIM;GERMANY;0;0;0
EDVP;N/A;;PEINE;GERMANY;0;0;0
EDVR;N/A;;RINTELN;GERMANY;0;0;0
EDVS;N/A;;SALZGITTER;GERMANY;0;0;0
EDVU;N/A;;UELZEN;GERMANY;0;0;0
EDVV;N/A;;HANNOVER UIR;GERMANY;0;0;0
EDVW;N/A;;BAD PYRMONT;GERMANY;0;0;0
EDVX;N/A;;GIFHORN;GERMANY;0;0;0
EDVY;N/A;;PORTA WESTFALICA;GERMANY;0;0;0
EDVZ;N/A;;FULDATAL;GERMANY;0;0;0
EDWA;N/A;;BORDELUM;GERMANY;0;0;0
EDWB;BRV;BREMERHAVEN;BREMERHAVEN;GERMANY;53.50333333;8.573333333;3.048
EDWC;N/A;;DAMME;GERMANY;0;0;0
EDWD;LEM;LEMWERDER;LEMWERDER;GERMANY;53.14305556;8.623333333;6.096
EDWE;EME;EMDEN;EMDEN;GERMANY;53.39111111;7.227222222;0.6096
EDWF;N/A;LEER PAPENBURG;LEER;GERMANY;53.27194444;7.442777778;0.9144
EDWG;AGE;;WANGEROOGE;GERMANY;0;0;0
EDWH;N/A;;OLDENBURG;GERMANY;0;0;0
EDWI;WVN;WILHELMSHAVEN MARIENSIEL;WILHELMSHAVEN;GERMANY;53.50472222;8.053333333;4.8768
EDWJ;JUI;;JUIST;GERMANY;0;0;0
EDWK;N/A;;KARLSHOEFEN;GERMANY;0;0;0
EDWL;N/A;;LANGEOOG;GERMANY;0;0;0
EDWM;N/A;;WESER;GERMANY;0;0;0
EDWN;N/A;;NORDHORN;GERMANY;0;0;0
EDWO;N/A;;OSNABRUECK;GERMANY;0;0;0
EDWP;N/A;;PELLWORM;GERMANY;0;0;0
EDWQ;N/A;;GANDERKESEE;GERMANY;0;0;0
EDWR;BMK;BORKUM;BORKUM;GERMANY;53.59527778;6.709166667;0.9144
EDWS;N/A;;NORDEN;GERMANY;0;0;0
EDWT;N/A;;NORDENHAM;GERMANY;0;0;0
EDWU;N/A;;VARRELBUSCH;GERMANY;0;0;0
EDWV;N/A;;VERDEN;GERMANY;0;0;0
EDWW;N/A;;BREMEN ACC/FIC;GERMANY;0;0;0
EDWX;N/A;;WESTERSTEDE;GERMANY;0;0;0
EDWY;NRD;NORDERNEY;NORDERNEY;GERMANY;53.70666667;7.23;1.8288
EDWZ;N/A;;BALTRUM;GERMANY;0;0;0
EDXA;N/A;;ACHMER;GERMANY;0;0;0
EDXB;HEI;;HEIDE-BUESUM;GERMANY;0;0;0
EDXC;N/A;;SCHLESWIG-KROPP;GERMANY;0;0;0
EDXD;N/A;;BOHMTE;GERMANY;0;0;0
EDXE;N/A;;RHEINE;GERMANY;0;0;0
EDXF;N/A;FLENSBURG SCHAFERHAUS;FLENSBURG;GERMANY;54.77166667;9.378055556;39.624
EDXG;N/A;;MELLE;GERMASN;0;0;0
EDXH;HGL;;HELGOLAND;GERMANY;0;0;0
EDXI;N/A;;NIENBURG;GERMANY;0;0;0
EDXL;N/A;;BARSSEL;GERMANY;0;0;0
EDXM;N/A;;ST. MICHAELISDONN;GERMANY;0;0;0
EDXN;N/A;;NORDHOLZ;GERMANY;0;0;0
EDXO;N/A;;ST. PETER-ORDING;GERMANY;0;0;0
EDXP;N/A;;HARLE;GERMANY;0;0;0
EDXQ;N/A;;DIEPHOLZ;GERMANY;0;0;0
EDXR;N/A;RENDSBURG SCHACHTHOLM;RENDSBURG;GERMANY;54.22083333;9.600555556;7.0104
EDXS;N/A;;SEEDORF;GERMANY;0;0;0
EDXU;N/A;;HUETTENBUSCH;GERMANY;0;0;0
EDXW;GWT;WESTERLAND SYLT;WESTERLAND;GERMANY;54.91305556;8.340277778;15.5448
EDXY;OHR;;WYK;GERMANY;0;0;0
EDXZ;N/A;;KUEHRSTEDT;GERMANY;0;0;0
EDYY;N/A;;MAASTRICHT UAC;GERMANY;0;0;0
EDZB;N/A;;BERLIN;GERMANY;0;0;0
EDZE;N/A;;ESSEN;GERMANY;0;0;0
EDZF;N/A;;FRANKFURT;GERMANY;0;0;0
EDZH;N/A;;HAMBURG;GERMANY;0;0;0
EDZL;N/A;;LEIPZIG;GERMANY;0;0;0
EDZM;N/A;;MUENCHEN;GERMANY;0;0;0
EDZO;N/A;;OFFENBACH;GERMANY;0;0;0
EDZS;N/A;;STUTTGART;GERMANY;0;0;0
EDZW;N/A;;OFFENBACH;GERMANY;0;0;0
EEEI;N/A;AMARI;ARMARI AIR FORCE BASE;ESTONIA;59.25944444;24.20444444;1.8288
EEKA;N/A;KARDLA;KARDLA;ESTONIA;58.99055556;22.83055556;4.8768
EEKE;N/A;KURESSAARE;KURESSAARE;ESTONIA;58.22972222;22.50944444;4.2672
EEPU;N/A;PARNU;PARNU;ESTONIA;58.41888889;24.47277778;14.3256
EETN;TLL;TALLINN;TALLINN-ULEMISTE INTERNATIONAL;ESTONIA;59.41305556;24.83277778;40.2336
EETU;N/A;TARTU;TARTU-ULENURME;ESTONIA;58.30722222;26.69027778;66.7512
EFAH;N/A;;AHMOSVO;FINLAND;0;0;0
EFAL;N/A;;ALAVUS;FINLAND;0;0;0
EFET;ENF;ENONTEKIO;ENONTEKIO;FINLAND;68.3625;23.42416667;306.324
EFEU;N/A;EURA;EURA;FINLAND;61.11611111;22.20138889;78.9432
EFFO;N/A;;FORSSA;FINLAND;0;0;0
EFHA;KEV;HALLI;HALLI;FINLAND;61.85583333;24.78638889;145.9992
EFHF;HEM;HELSINKI MALMI;HELSINKI;FINLAND;60.25444444;25.04277778;17.3736
EFHK;HEL;HELSINKI VANTAA;HELSINKI;FINLAND;60.32;24.95611111;54.5592
EFHL;N/A;;HAILUOTO;FINLAND;0;0;0
EFHM;N/A;HAMEENKYRO;HAMEENKYRO;FINLAND;61.68944444;23.07361111;136.8552
EFHN;N/A;HANKO;HANKO;FINLAND;59.84861111;23.08333333;6.096
EFHP;N/A;;HAAPAVESI;FINLAND;0;0;0
EFHT;N/A;;AHTARI;FINLAND;0;0;0
EFHV;N/A;HYVINKAA;HYVINKAA;FINLAND;60.65444444;24.88111111;131.064
EFII;N/A;;IISALMI;FINLAND;0;0;0
EFIK;N/A;KIIKALA;KIKALA;FINLAND;60.4625;23.6525;116.1288
EFIL;N/A;;ILMAJOKI;FINLAND;0;0;0
EFIM;N/A;IMMOLA;IMMOLA;FINLAND;61.24916667;28.90361111;103.0224
EFIT;N/A;KITEE;KITEE;FINLAND;62.16611111;30.07361111;110.9472
EFIV;IVL;IVALO;IVALO;FINLAND;68.60722222;27.40527778;146.6088
EFJM;N/A;;JAMIJARVI;FINLAND;0;0;0
EFJO;JOE;JOENSUU;JOENSUU;FINLAND;62.65888889;29.62444444;121.3104
EFJP;N/A;;JAKALAPAA;FINLAND;0;0;0
EFJS;N/A;;SONKAJARVI-JYRKKA;FINLAND;0;0;0
EFJY;JYV;JYVASKYLA;JYVASKYLA;FINLAND;62.39944444;25.67805556;139.9032
EFKA;KAU;KAUHAVA;KAUHAVA;FINLAND;63.12694444;23.05138889;46.0248
EFKE;KEM;KEMI TORNIO;KEMI;FINLAND;65.78166667;24.59888889;18.5928
EFKG;N/A;;KUMLINGE;FINLAND;0;0;0
EFKH;N/A;;KUHMO;FINLAND;0;0;0
EFKI;KAJ;KAJAANI;KAJAANI;FINLAND;64.28527778;27.69222222;147.2184
EFKJ;N/A;KAUHAJOKI;KAUHAJOKI;FINLAND;62.4625;22.39305556;124.0536
EFKK;KOK;KRUUNUPYY;KRUUNUPYY;FINLAND;63.72111111;23.14305556;25.2984
EFKM;N/A;KEMIJARVI;KEMIJARVI;FINLAND;66.71277778;27.15666667;210.9216
EFKR;N/A;;KARSAMAKI;FINLAND;0;0;0
EFKS;KAO;KUUSAMO;KUUSAMO;FINLAND;65.9875;29.23916667;263.9568
EFKT;KTT;KITTILA;KITTILA;FINLAND;67.70083333;24.84666667;196.2912
EFKU;KUO;KUOPIO;KUOPIO;FINLAND;63.00694444;27.7975;98.4504
EFKV;N/A;;KIVIJARVI;FINLAND;0;0;0
EFKY;N/A;;KYMI;FINLAND;0;0;0
EFLA;N/A;LAHTI VESIVEHMAA;VESIVEHMAA;FINLAND;61.14388889;25.69333333;153.0096
EFLP;LPP;LAPPEENRANTA;LAPPEENRANTA;FINLAND;61.04444444;28.14416667;106.3752
EFMA;MHQ;MARIEHAMN;MARIEHAMN;FINLAND;60.12194444;19.89805556;5.1816
EFME;N/A;MENKIJARVI;MENKIJARVI;FINLAND;62.94666667;23.51888889;100.8888
EFMI;MIK;MIKKELI;MIKKELI;FINLAND;61.68638889;27.20166667;100.2792
EFNU;N/A;NUMMELA;NUMMELA;FINLAND;60.33388889;24.29638889;112.1664
EFOP;N/A;;ORIPAA;FINLAND;0;0;0
EFOU;OUL;OULU;OULU;FINLAND;64.93;25.35444444;14.3256
EFPE;N/A;;PELLO;FINLAND;0;0;0
EFPI;N/A;PIIKAJARVI;PIIKAJARVI;FINLAND;61.24555556;22.19333333;45.1104
EFPK;N/A;;PIEKSAMAKI;FINLAND;0;0;0
EFPO;POR;PORI;PORI;FINLAND;61.46166667;21.79972222;13.4112
EFPU;N/A;PUDASJARVI;PUDASJARVI;FINLAND;65.40222222;26.94694444;121.0056
EFPY;N/A;PYHASALMI;PYHASALMI;FINLAND;63.73166667;25.92611111;160.9344
EFRA;N/A;;RAUTAVAARA;FINLAND;0;0;0
EFRH;N/A;RAAHE PATTIJOKI;PATTIJOKI;FINLAND;64.68805556;24.69583333;35.9664
EFRN;N/A;RANTASALMI;RANTASALMI;FINLAND;62.06527778;28.35638889;8.8392
EFRO;RVN;ROVANIEMI;ROVANIEMI;FINLAND;66.56472222;25.83027778;196.596
EFRV;N/A;;KIURUVESI;FINLAND;0;0;0
EFRY;N/A;RAYSKALA;RAYSKALA;FINLAND;60.74472222;24.10777778;124.0536
EFSA;SVL;SAVONLINNA;SAVONLINNA;FINLAND;61.94305556;28.945;94.7928
EFSE;N/A;SELANPAA;SELANPAA;FINLAND;61.06222222;26.79861111;127.1016
EFSO;SOT;SODANKYLA;SODANKYLA;FINLAND;67.395;26.61888889;183.4896
EFSU;N/A;;SUOMUSSALMI;FINLAND;0;0;0
EFTE;N/A;;TERVOLA;FINLAND;0;0;0
EFTP;TMP;TAMPERE PIRKKALA;TAMPERE;FINLAND;61.41388889;23.60416667;118.872
EFTS;N/A;TEISKO;TEISKO;FINLAND;61.77333333;24.02694444;156.972
EFTU;TKU;TURKU;TURKU;FINLAND;60.51388889;22.26277778;49.0728
EFUT;QVY;UTTI;UTTI;FINLAND;60.89638889;26.93833333;103.3272
EFVA;VAA;VAASA;VAASA;FINLAND;63.05111111;21.76138889;5.7912
EFVL;N/A;;VAALA;FINLAND;0;0;0
EFVR;VRK;VARKAUS;VARKAUS;FINLAND;62.17111111;27.86861111;87.1728
EFVU;N/A;;VUOSTO;FINLAND;0;0;0
EFWB;N/A;;WREDEBY;FINLAND;0;0;0
EFYL;N/A;YLIVIESKA;YLIVIESKA-RAUDASKYLA;FINLAND;64.06027778;24.71583333;7.62
EFAA;N/A;;AAVAHELUKKA;FINLAND;0;0;0
EGAB;ENK;ST ANGELO;ENNISKILLEN;ENGLAND;54.39888889;-7.651666667;47.244
EGAC;BHD;CITY;BELFAST;NORTH IRELAND;54.61805556;-5.8725;4.572
EGAD;N/A;;NEWTOWNARDS;U.K.;0;0;0
EGAE;LDY;LONDONDERRY EGLINTON;LONDONDERRY;NORTH IRELAND;55.04277778;-7.161111111;6.7056
EGAL;N/A;;LANGFORD LODGE;ENGLAND;0;0;0
EGBB;BHX;BIRMINGHAM;BIRMINGHAM;ENGLAND;52.45361111;-1.747777778;99.06
EGBD;N/A;;DERBY;ENGLAND;0;0;0
EGBE;CVT;COVENTRY;COVENTRY;ENGLAND;52.36972222;-1.479722222;85.6488
EGBG;N/A;LEICESTER;LEICESTER;ENGLAND;52.60777778;-1.031944444;142.9512
EGBJ;GLO;GLOUCESTERSHIRE;GOLOUCHESTERSHIRE;ENGLAND;51.89416667;-2.167222222;28.956
EGBK;N/A;;NORTHAMPTON;ENGLAND;0;0;0
EGBM;N/A;;TATENHILL;U.K.;0;0;0
EGBN;N/A;NOTTINGHAM;NOTTINGHAM;ENGLAND;52.92;-1.079166667;42.0624
EGBO;N/A;WOLVERHAMPTON;HALFPENNY GREEN;ENGLAND;52.5175;-2.259722222;85.9536
EGBP;N/A;KEMBLE;PAILTON;U.K.;51.66805556;-2.056944444;131.9784
EGBS;N/A;;SHOBDON;U.K.;0;0;0
EGBT;N/A;TURWESTON;TURWESTON;U.K.;52.04083333;-1.095555556;13.716
EGBW;N/A;;WELLESBOURNE;U.K.;0;0;0
EGCA;N/A;;COAL ASTON;ENGLAND;0;0;0
EGCB;N/A;;MANCHESTER;ENGLAND;0;0;0
EGCC;MAN;MANCHESTER;MANCHESTER;ENGLAND;53.35361111;-2.274722222;78.3336
EGCD;N/A;MANCHESTER WOODFORD;WOODFORT;ENGLAND;53.33805556;-2.148888889;89.916
EGCE;N/A;;WREXHAM;U.K.;0;0;0
EGCF;N/A;SANDTOFT;SANDTOFT;U.K.;53.55972222;-0.858333333;3.3528
EGCG;N/A;;STRUBBY;U.K.;0;0;0
EGCH;N/A;;HOLYHEAD;ENGLAND;0;0;0
EGCI;N/A;;DONCASTER;ENGLAND;0;0;0
EGCJ;N/A;;SHERBURN-IN-ELMET;U.K.;0;0;0
EGCL;N/A;;FENLAND;ENGLAND;0;0;0
EGCS;N/A;;STURGATE;U.K.;0;0;0
EGDA;N/A;;BRAWDY;ENGLAND;0;0;0
EGDC;N/A;CHIVENOR;CHIVENOR;ENGLAND;51.08694444;-4.150277778;8.2296
EGDF;N/A;;RUDOLE MANOR HQP & SS;U.K.;0;0;0
EGDG;NQY;ST MAWGAN;NEWQUAI;ENGLAND;50.44055556;-4.995277778;118.872
EGDJ;N/A;;UPAVON;U.K.;0;0;0
EGDK;N/A;;KEMBLE;ENGLAND;0;0;0
EGDL;LYE;LYNEHAM;LYNEHAM;U.K.;51.505;-1.993333333;156.3624
EGDM;N/A;BOSCOMBE DOWN;BOSCOMBE DOWN;ENGLAND;51.15194444;-1.747222222;124.0536
EGDN;N/A;;NETHERAVON;U.K.;0;0;0
EGDP;N/A;;PORTLAND;U.K.;0;0;0
EGDR;N/A;CULDROSE;CULDROSE;ENGLAND;50.08583333;-5.255555556;81.3816
EGDS;N/A;;BULFORD;ENGLAND;0;0;0
EGDT;N/A;;WROUGHTON;U.K.;0;0;0
EGDX;N/A;ST ATHAN;ST. ATHAN;U.K.;51.40472222;-3.435555556;49.6824
EGDY;YEO;YEOVILTON;YEOVILTON;U.K.;51.00916667;-2.638611111;22.86
EGFC;N/A;;CARDIFF;ENGLAND;0;0;0
EGFE;N/A;HAVERFORDWEST;HAVERFORDWEST;ENGLAND;51.83305556;-4.961111111;47.244
EGFF;CWL;CARDIFF;CARDIFF;WALES;51.39666667;-3.343333333;67.056
EGFH;SWS;SWANSEA;SWANSEA;ENGLAND;51.60527778;-4.067777778;91.1352
EGGD;BRS;BRISTOL;BRISTOL;ENGLAND;51.3825;-2.718888889;189.5856
EGGE;N/A;;BLETCHLEY;ENGLAND;0;0;0
EGGL;LHR;;LONDON;ENGLAND;0;0;0
EGGP;LPL;LIVERPOOL;LIVERPOOL;ENGLAND;53.33361111;-2.849722222;24.6888
EGGW;LTN;LUTON;LONDON;ENGLAND;51.87444444;-0.368333333;160.3248
EGHA;N/A;;COMPTON ABBAS;ENGLAND;0;0;0
EGHC;N/A;;LAND'S END;ENGLAND;0;0;0
EGHD;PLH;PLYMOUTH;PLYMOUTH;ENGLAND;50.42277778;-4.105833333;147.828
EGHE;ISC;;ISLES OF SCILLY;ENGLAND;0;0;0
EGHG;N/A;;YEOVIL;U.K.;0;0;0
EGHH;BOH;BOURNEMOUTH;BOURNEMOUTH;ENGLAND;50.78;-1.8425;11.5824
EGHI;SOU;SOUTHAMPTON;SOUTHAMPTON;ENGLAND;50.95;-1.356666667;13.4112
EGHJ;N/A;;BEMBRIDGE;ENGLAND;0;0;0
EGHK;PZE;;PENZANCE;ENGLAND;0;0;0
EGHL;QLA;LASHAM;LASHAM;ENGLAND;51.185;-1.032222222;188.3664
EGHM;N/A;;HAMBLE;ENGLAND;0;0;0
EGHN;N/A;;SANDOWN;ENGLAND;0;0;0
EGHO;N/A;;THRUXTON;U.K.;0;0;0
EGHR;N/A;;CHICHESTER;ENGLAND;0;0;0
EGHS;N/A;;HENSTRIDGE;ENGLAND;0;0;0
EGJA;ACI;;ALDERNEY;ENGLAND;0;0;0
EGJB;GCI;GUERNSEY;GUERNSEY;GUERNSEY ISLD.;49.43472222;-2.601944444;102.4128
EGJJ;JER;JERSEY;JERSEY;ENGLAND;49.20777778;-2.195277778;83.5152
EGJL;N/A;;MACHRIHANISH;U.K.;0;0;0
EGKA;ESH;SHOREHAM;SHOREHAM BY SEA;ENGLAND;50.83555556;-0.297222222;2.1336
EGKB;BQH;BIGGIN HILL;BIGGIN HILL;ENGLAND;51.33083333;0.0325;182.88
EGKC;N/A;;BOGNOR REGIS;ENGLAND;0;0;0
EGKE;N/A;;CHALLOCK;ENGLAND;0;0;0
EGKK;LGW;GATWICK;LONDON;ENGLAND;51.14805556;-0.190277778;59.7408
EGKM;N/A;;WEST MALLING;U.K.;0;0;0
EGKR;N/A;;REDHILL;U.K.;0;0;0
EGLA;N/A;;BODMIN;ENGLAND;0;0;0
EGLB;N/A;;BROOKLANDS;ENGLAND;0;0;0
EGLC;LCY;CITY;LONDON;ENGLAND;51.505;0.054166667;5.7912
EGLD;N/A;;DENHAM;ENGLAND;0;0;0
EGLF;FAB;FARNBOROUGH;FARNBOROUGH;ENGLAND;51.27583333;-0.776111111;72.5424
EGLG;N/A;;PANSHANGER;U.K.;0;0;0
EGLJ;N/A;CHALGROVE;CHALSGROVE;ENGLAND;51.67611111;-1.080833333;73.4568
EGLK;BBS;BLACKBUSHE;BLACKBUSHE;ENGLAND;51.32388889;-0.8475;99.06
EGLL;LHR;HEATHROW;LONDON;ENGALND;51.4775;-0.461388889;24.384
EGLM;N/A;;WHITE WALTHAM;U.K.;0;0;0
EGLS;N/A;;OLD SARUM;U.K.;0;0;0
EGLW;N/A;;LONDON;ENGLAND;0;0;0
EGMC;SEN;SOUTHEND;SOUTHEND;ENGLAND;51.57138889;0.695555556;14.9352
EGMD;LYX;LYDD;LYDD;U.K.;50.95611111;0.939166667;3.6576
EGMH;MSE;MANSTON;MANSTON;ENGLAND;51.34222222;1.346111111;54.2544
EGNA;N/A;;HUCKNALL;ENGLAND;0;0;0
EGNB;N/A;BROUGH;BROUGH;ENGLAND;53.71944444;-0.566111111;3.6576
EGNC;CAX;CARLISLE;CARLISLE;ENGLAND;54.9375;-2.809166667;57.912
EGNE;N/A;;REPTON;U.K.;0;0;0
EGNF;N/A;;NETHER THORPE;U.K.;0;0;0
EGNG;N/A;;PRESTON/BLACKBURN;U.K.;0;0;0
EGNH;BLK;BLACKPOOL;BLACKPOOL;ENGLAND;53.77166667;-3.028611111;10.3632
EGNI;N/A;;SKEGNESS;U.K.;0;0;0
EGNJ;HUY;HUMBERSIDE;HUMBERSIDE;ENGLAND;53.57444444;-0.350833333;36.8808
EGNL;BWF;WALNEY ISLAND;BARROW ISLAND;ENGLAND;54.12972222;-3.256111111;14.3256
EGNM;LBA;LEEDS BRADFORD;LEEDS;ENGLAND;53.86583333;-1.660555556;207.8736
EGNO;N/A;WARTON;WARTON;U.K.;53.745;-2.883055556;16.764
EGNR;CEG;HAWARDEN;HAWARDEN;ENGLAND;53.17805556;-2.977777778;10.668
EGNS;IOM;ISLE OF MAN;ISLE OF MAN;ENGLAND;54.08333333;-4.623888889;16.764
EGNT;NCL;NEWCASTLE;NEWCASTLE;ENGLAND;55.0375;-1.691666667;81.0768
EGNV;MME;TEESSIDE;TEESSIDE;ENGLAND;54.50916667;-1.429166667;36.576
EGNW;N/A;;WICKENBY;U.K.;0;0;0
EGNX;EMA;EAST MIDLANDS;EAST MIDLANDS;ENGLAND;52.83111111;-1.328055556;93.2688
EGOB;N/A;;BURTONWOOD;ENGLAND;0;0;0
EGOC;N/A;;BISHOPS COURT;ENGLAND;0;0;0
EGOD;N/A;LLANBEDR;LLANBEDR;ENGLAND;52.81166667;-4.123333333;9.144
EGOE;N/A;TERNHILL;TERNHILL;U.K.;52.87111111;-2.533333333;82.9056
EGOJ;N/A;;JURBY HEAD;ENGLAND;0;0;0
EGOM;N/A;;SPADEADAM;U.K.;0;0;0
EGOP;N/A;;PEMBREY;U.K.;0;0;0
EGOQ;N/A;MONA;MONA;U.K.;53.25833333;-4.373333333;61.5696
EGOS;N/A;SHAWBURY;SHAWBURY;U.K.;52.79805556;-2.667777778;75.8952
EGOV;N/A;VALLEY;VALLEY;U.K.;53.24805556;-4.535277778;11.2776
EGOW;N/A;WOODVALE;WOODVALE;U.K.;53.58138889;-3.055277778;11.2776
EGOY;N/A;WEST FREUGH;WEST FREUGH;U.K.;54.85111111;-4.947777778;17.3736
EGPA;KOI;KIRKWALL;KIRKWALL;SCOTLAND;58.95805556;-2.905;15.5448
EGPB;LSI;SUMBURGH;SUMBURGH;U.K.;59.87888889;-1.295555556;6.096
EGPC;WIC;WICK;WICK;U.K.;58.45861111;-3.092777778;38.4048
EGPD;ABZ;DYCE;ABERDEEN;U.K;57.20416667;-2.200277778;65.532
EGPE;INV;INVERNESS;INVERNESS;U.K;57.54;-4.05;9.4488
EGPF;GLA;GLASGOW;GLASGOW;U.K;55.87194444;-4.433055556;7.9248
EGPG;N/A;;CUMBERNAULD;U.K;0;0;0
EGPH;EDI;EDINBURGH;EDINBURGH;U.K;55.95;-3.3725;41.148
EGPI;ILY;ISLAY;ISLAY;U.K;55.68194444;-6.256666667;16.4592
EGPJ;N/A;;FIFE;U.K;0;0;0
EGPK;PIK;PRESTWICK;PRESTWICK;U.K;55.50777778;-4.586666667;19.812
EGPL;BEB;BENBECULA;BENBECULA;U.K;57.48111111;-7.362777778;5.7912
EGPM;SDZ;SCATSTA;SCATSTA;U.K.;60.43222222;-1.298055556;22.86
EGPN;DND;DUNDEE;DUNDEE;U.K;56.4525;-3.025833333;5.1816
EGPO;SYY;STORNOWAY;STORNOWAY;U.K.;58.21361111;-6.328888889;7.9248
EGPR;BRR;;BARRA;U.K;0;0;0
EGPS;N/A;;PETERHEAD;U.K.;0;0;0
EGPT;N/A;;PERTH;U.K;0;0;0
EGPU;TRE;TIREE;TIREE;U.K.;56.49916667;-6.869166667;11.5824
EGPW;UNT;;UNST;SHETLAND ISLAND;0;0;0
EGPY;N/A;;DOUNREAY;U.K;0;0;0
EGQA;N/A;;TAIN;U.K.;0;0;0
EGQB;N/A;;BALLYKELLY;U.K;0;0;0
EGQC;N/A;;GARVE ISLAND;U.K;0;0;0
EGQD;N/A;;LISBURN;U.K;0;0;0
EGQL;ADX;LEUCHARS;LEUCHARS;U.K;56.37277778;-2.868333333;11.5824
EGQM;N/A;;BOULMER;U.K;0;0;0
EGQN;N/A;;BUCHAN;U.K;0;0;0
EGQO;N/A;;ROSEHEARTY;U.K.;0;0;0
EGQR;N/A;;SAXA VORD;U.K.;0;0;0
EGQS;LMO;LOSSIEMOUTH;LOSSIEMOUTH;U.K;57.705;-3.339166667;12.8016
EGQT;N/A;;EDINBURGH;U.K;0;0;0
EGQX;N/A;;KINLOSS;U.K;0;0;0
EGRE;N/A;;MALVERN;U.K.;0;0;0
EGRR;N/A;BRACKNELL MET CENTER;BRACKNELL;ENGLAND;51.38333333;-0.783333333;0
EGRS;N/A;;SULLOM VOE;U.K.;0;0;0
EGSA;N/A;;SHIPDHAM;U.K.;0;0;0
EGSB;N/A;;BEDFORD;ENGLAND;0;0;0
EGSC;CBG;CAMBRIDGE;CAMBRIDGE;ENGLAND;52.205;0.175;15.24
EGSD;N/A;;GREAT YARMOUTH;ENGLAND;0;0;0
EGSE;N/A;;IPSWICH;ENGLAND;0;0;0
EGSF;N/A;CONINGTON;PETERBOROUGH;ENGLAND;52.46805556;-0.251111111;7.9248
EGSG;N/A;;STAPLEFORD;U.K.;0;0;0
EGSH;NWI;NORWICH;NORWICH;ENGLAND;52.67583333;1.282777778;35.6616
EGSK;N/A;;HETHEL;ENGLAND;0;0;0
EGSL;N/A;;ANDREWSFIELD;ENGLAND;0;0;0
EGSM;N/A;;BECCLES;ENGLAND;0;0;0
EGSN;N/A;;BOURN;ENGLAND;0;0;0
EGSP;N/A;;PETERBOROUGH;ENGLAND;0;0;0
EGSR;N/A;;EARLS COLNE;ENGLAND;0;0;0
EGSS;STN;STANSTED;LONDON;ENGLAND;51.885;0.235;106.0704
EGST;N/A;;ELMSETT;ENGLAND;0;0;0
EGSV;N/A;;BEDFORD;ENGLAND;0;0;0
EGSW;N/A;;WEELEY;U.K.;0;0;0
EGSX;N/A;NORTH WEALD;NORTH WEALD;U.K.;51.72166667;0.154166667;97.8408
EGSY;N/A;SHEFFIELD CITY;FOWLMERE;ENGLAND;53.39416667;-1.388333333;70.4088
EGTA;N/A;;AYLESBURY ON THAMES;ENGLAND;0;0;0
EGTB;N/A;;WYCOMBE AIR PARK;U.K.;0;0;0
EGTC;N/A;CRANFIELD;CRANFIELD;ENGLAND;52.07222222;-0.616666667;109.1184
EGTD;N/A;DUNSFOLD;DUNSFOLD;ENGLAND;51.11666667;-0.534444444;52.4256
EGTE;EXT;EXETER;EXETER;ENGLAND;50.73444444;-3.413888889;30.48
EGTF;N/A;;FAIROAKS;ENGLAND;0;0;0
EGTG;FZO;BRISTOL FILTON;BRISTOL;ENGLAND;51.51944444;-2.590833333;68.8848
EGTH;HTF;HATFIELD;HATFIELD;ENGLAND;51.76666667;0.25;23.4696
EGTI;N/A;;LEAVESDEN;ENGLAND;0;0;0
EGTK;OXF;KIDLINGTON;OXFORD;ENGLAND;51.83694444;-1.32;82.296
EGTR;N/A;;ELSTREE;ENGLAND;0;0;0
EGUA;N/A;;UPPER HEYFORD;U.K.;0;0;0
EGUB;N/A;BENSON;BENSON;ENGLAND;51.61611111;-1.095555556;68.8848
EGUC;N/A;;ABERPORTH;ENGLAND;0;0;0
EGUD;N/A;;ABINGDON;ENGLAND;0;0;0
EGUF;N/A;;FARNBOROUGH;ENGLAND;0;0;0
EGUG;N/A;;ASH;ENGLAND;0;0;0
EGUH;N/A;;HIGH WYCOMBE;ENGLAND;0;0;0
EGUJ;N/A;;NEATISHEAD;U.K.;0;0;0
EGUK;N/A;;WATERBEACH;U.K.;0;0;0
EGUL;N/A;LAKENHEATH;LAKENHEATH;ENGLAND;52.40916667;0.560833333;9.7536
EGUM;N/A;;MANSTON;ENGLAND;0;0;0
EGUN;MHZ;MILDENHALL;MILDENHALL;ENGLAND;52.36083333;0.488333333;10.0584
EGUP;N/A;;SCULTHORPE;U.K.;0;0;0
EGUS;N/A;;LEE-ON-SOLENT;ENGLAND;0;0;0
EGUW;N/A;WATTISHAM;WATTISHAM;U.K.;52.12722222;0.955833333;86.5632
EGUY;N/A;WYTON;WYTON;U.K.;52.35722222;-0.107777778;41.148
EGVA;FFD;FAIRFORD;FAIRFORD;ENGLAND;51.68194444;-1.79;87.1728
EGVB;N/A;;BAWDSEY;ENGLAND;0;0;0
EGVC;N/A;;HULLAVINGTON;ENGLAND;0;0;0
EGVG;N/A;;WOODBRIDGE;U.K.;0;0;0
EGVH;N/A;;HEREFORD;ENGLAND;0;0;0
EGVI;N/A;;GREEN COMMON;ENGLAND;0;0;0
EGVJ;N/A;;BENTWATERS;ENGLAND;0;0;0
EGVL;N/A;;NORTH LUFFENHAM;U.K.;0;0;0
EGVN;BZZ;BRIZE NORTON;BRIZE NORTON;ENGLAND;51.74972222;-1.583611111;87.7824
EGVO;ODH;ODIHAM;ODIHAM;U.K.;51.23416667;-0.942777778;123.444
EGVP;N/A;;MIDDLE WALLOP;U.K.;0;0;0
EGVW;N/A;;BEDFORD;ENGLAND;0;0;0
EGWC;N/A;COSFORD;COSFORD;ENGLAND;52.64;-2.305555556;82.9056
EGWE;N/A;;HENLOW;ENGLAND;0;0;0
EGWN;N/A;;HALTON;ENGLAND;0;0;0
EGWS;N/A;;BENTLEY PRIORY;ENGLAND;0;0;0
EGWU;NHT;NORTHOLT RAF;NORTHOLT;U.K.;51.55277778;-0.418055556;37.7952
EGWZ;N/A;;ALCONBURY;ENGLAND;0;0;0
EGXB;N/A;;BINBROOK;ENGLAND;0;0;0
EGXC;QCY;CONINGSBY;CONINGSBY;ENGLAND;53.09277778;-0.165833333;7.62
EGXD;N/A;DISHFORTH;DISHFORTH;ENGLAND;54.13694444;-1.42;35.6616
EGXE;N/A;LEEMING;LEEMING;ENGLAND;54.29222222;-1.535;40.2336
EGXF;N/A;;COWDEN;ENGLAND;0;0;0
EGXG;N/A;CHURCH FENTON;CHURCH FENTON;ENGLAND;53.83416667;-1.195277778;8.8392
EGXH;BEQ;HONINGTON;HONINGTON;ENGLAND;52.3425;0.772777778;53.0352
EGXI;N/A;;FINNINGLEY;ENGLAND;0;0;0
EGXJ;N/A;COTTESMORE;COTTESMORE;ENGLAND;52.73555556;-0.648611111;140.5128
EGXK;N/A;;DONNA NOOK;ENGLAND;0;0;0
EGXN;N/A;;NEWTON;U.K.;0;0;0
EGXP;N/A;SCAMPTON;SCAMPTON;U.K.;53.3075;-0.550833333;61.5696
EGXS;N/A;;SWINDERBY;U.K.;0;0;0
EGXT;N/A;WITTERING;WITTERING;U.K.;52.6125;-0.476388889;83.2104
EGXU;N/A;LINTON ON OUSE;LINTON-ON-OUSE;ENGLAND;54.04944444;-1.251944444;16.1544
EGXV;N/A;;LECONFIELD;ENGLAND;0;0;0
EGXW;WTN;WADDINGTON;WADDINGTON;U.K.;53.16611111;-0.523611111;70.4088
EGXZ;N/A;TOPCLIFFE;TOPCLIFFE;U.K.;54.20555556;-1.382222222;28.0416
EGYB;N/A;;BRAMPTON;ENGLAND;0;0;0
EGYC;CLF;COLTISHALL;COLTISHALL;ENGLAND;52.75472222;1.357222222;20.1168
EGYD;N/A;CRANWELL;CRANWELL;ENGLAND;53.03055556;-0.481111111;66.4464
EGYE;N/A;BARKSTON HEATH;BARKSTON HEATH;ENGLAND;52.96222222;-0.561388889;111.8616
EGYH;N/A;;HOLBEACH;ENGLAND;0;0;0
EGYK;N/A;;ELVINGTON;ENGLAND;0;0;0
EGYM;KNF;MARHAM;MARHAM;U.K.;52.64833333;0.550277778;22.86
EGYP;MPN;MOUNT PLEASANT;MOUNT PLEASANT;FALKLAND ISLANDS;-51.82277778;-58.44722222;74.3712
EGYW;N/A;;WAINFLEET;U.K.;0;0;0
EGAA;BFS;ALDERGROVE;BELFAST;NORTH IRELAND;54.6575;-6.215833333;81.6864
EHAL;N/A;;AMELAND;NETHERLANDS;0;0;0
EHAM;AMS;SCHIPHOL;AMSTERDAM;NETHERLANDS;52.30861111;4.763888889;-1
EHBD;N/A;BUDEL;WEERT;NETHERLANDS;51.25527778;5.601388889;34.7472
EHBK;MST;MAASTRICHT;MAASTRICHT;NETHERLANDS;50.91138889;5.77;114.3
EHDB;N/A;;DE BILT;NETHERLANDS;0;0;0
EHDL;N/A;DEELEN;DEELEN;NETHERLANDS;52.06055556;5.873055556;48.1584
EHDP;N/A;;VENRAIJ;NETHERLANDS;0;0;0
EHDR;N/A;DRACHTEN;DRACHTEN;NETHERLANDS;53.11916667;6.129722222;4.2672
EHEH;EIN;EINDHOVEN;EINDHOVEN;NETHERLANDS;51.45;5.374444444;22.5552
EHGG;GRQ;EELDE;GRONINGEN;NETHERLANDS;53.11944444;6.579444444;5.1816
EHGR;N/A;GILZE RIJEN;GILZE-RIJEN;NETHERLANDS;51.56777778;4.933055556;14.9352
EHHO;N/A;;HOOGEVEEN;NETHERLANDS;0;0;0
EHHV;N/A;;HILVERSUM;NETHERLANDS;0;0;0
EHKD;DHR;DE KOOY;DE KOOY;NETHERLANDS;52.92333333;4.780555556;0.9144
EHKL;N/A;;VOLKEL;NETHERLANDS;0;0;0
EHLE;N/A;LELYSTAD;LELYSTAD;NETHERLANDS;52.46027778;5.527222222;-1
EHLW;LWR;LEEUWARDEN;LEEUWARDEN;NETHERLANDS;53.22861111;5.760555556;1.2192
EHMC;N/A;;NIEUW MILLINGEN;NETHERLANDS;0;0;0
EHMZ;N/A;;MIDDELBURG;NETHERLANDS;0;0;0
EHNP;N/A;;EMMELOORD;NETHERLANDS;0;0;0
EHRD;RTM;ROTTERDAM;ROTTERDAM;NETHERLANDS;51.95722222;4.441666667;-1
EHSB;UTC;SOESTERBERG;SOESTERBERG;NETHERLANDS;52.12694444;5.276388889;20.1168
EHSE;N/A;;HOEVEN;NETHERLANDS;0;0;0
EHST;N/A;;STADSKANAAL;NETHERLANDS;0;0;0
EHTE;N/A;;DEVENTER;NETHERLANDS;0;0;0
EHTW;ENS;TWENTHE;ENSCHEDE;NETHERLANDS;52.27;6.874166667;34.7472
EHTX;N/A;;TEXEL;NETHERLANDS;0;0;0
EHVB;LID;VALKENBURG;VALKENBURG;NETHERLANDS;52.16972222;4.426111111;0
EHWO;WOE;WOENSDRECHT;WOENSDRECHT;NETHERLANDS;51.44888889;4.341944444;19.2024
EHYM;N/A;;YMUIDEN;NETHERLANDS;0;0;0
EHYP;YPB;;YPENBURG;NETHERLANDS;0;0;0
EIAB;N/A;;ABBEYSHRULE;IRELAND;0;0;0
EIBN;N/A;;BANTRY;IRELAND;0;0;0
EIBR;N/A;;BIRR;IRELAND;0;0;0
EIBT;N/A;;BELMULLET;IRELAND;0;0;0
EICB;N/A;;CASTLEBAR;IRELAND;0;0;0
EICD;N/A;;CASTLEBRIDGE;IRELAND;0;0;0
EICK;ORK;CORK;CORK;IRELAND;51.84277778;-8.491944444;153.0096
EICM;GWY;GALWAY;GALWAY;IRELAND;53.30138889;-8.939166667;24.6888
EICN;N/A;;COONAGH;IRELAND;0;0;0
EICS;N/A;;CASTLEFORBES;IRELAND;0;0;0
EIDL;N/A;DONEGAL;DONEGAL;IRELAND;55.04416667;-8.340833333;9.144
EIDW;DUB;DUBLIN;DUBLIN;IRELAND;53.42111111;-6.27;73.7616
EIFD;N/A;;CASHEL;IRELAND;0;0;0
EIFR;N/A;;FINNER;IRELAND;0;0;0
EIGM;N/A;;GORMANSTON;IRELAND;0;0;0
EIGN;N/A;;GOWRAN GRANGE;IRELAND;0;0;0
EIHN;N/A;;HACKETSTOWN;IRELAND;0;0;0
EIIM;IOR;;INISHMORE;IRELAND;0;0;0
EIIR;INQ;;INISHEER;IRELAND;0;0;0
EIKL;N/A;;KILKENNY;IRELAND;0;0;0
EIKN;NOC;CONNAUGHT;CONNAUGHT;IRELAND;53.91027778;-8.818333333;202.692
EIKY;KIR;KERRY;KERRY;IRELAND;52.18083333;-9.523611111;34.1376
EILT;N/A;;LETTERKENNY;IRELAND;0;0;0
EIME;N/A;CASEMENT;CASEMENT;IRELAND;53.30277778;-6.442777778;97.2312
EIMN;IIA;;INISHMAAN;IRELAND;0;0;0
EINN;SNN;SHANNON;SHANNON;IRELAND;52.70194444;-8.924722222;14.0208
EIPT;N/A;;POWERSCOURT;IRELAND;0;0;0
EIRT;N/A;;RATHCOOLE;IRELAND;0;0;0
EISG;SXL;SLIGO;SLIGO;IRELAND;54.28;-8.599166667;3.3528
EISP;N/A;;SPANISH POINT;IRELAND;0;0;0
EITM;N/A;;TRIM;IRELAND;0;0;0
EIWF;WAT;WATERFORD;WATERFORD;IRELAND;52.18694444;-7.086944444;36.2712
EIWT;N/A;;WESTON;IRELAND;0;0;0
EKAE;N/A;;AERO;DENMARK;0;0;0
EKAH;AAR;AARHUS;AARHUS;DENMARK;56.30416667;10.61944444;24.9936
EKAT;N/A;;ANHOLT;DENMARK;0;0;0
EKAV;N/A;;AVNO;DENMARK;0;0;0
EKBI;BLL;BILLUND;BILLUND;DENMARK;55.74027778;9.151666667;75.2856
EKCH;CPH;KASTRUP;COPENHAGEN;DENMARK;55.61777778;12.65583333;5.1816
EKEB;EBJ;ESBJERG;ESBJERG;DENMARK;55.52583333;8.553333333;29.5656
EKGF;N/A;;THYRA OST;DENMARK;0;0;0
EKGH;N/A;GRONHOLT HILLEROD;GRONHOLT;DENMARK;55.94111111;12.38222222;29.5656
EKHG;N/A;;HERNING;DENMARK;0;0;0
EKHO;N/A;LINDTORP;LINDTORP;DENMARK;56.39666667;8.443333333;14.9352
EKHS;N/A;;HADSUND;DENMARK;0;0;0
EKKA;KRP;KARUP;KARUP;DENMARK;56.29722222;9.124444444;51.816
EKKL;N/A;;KALUNDBORG;DENMARK;0;0;0
EKLS;N/A;LAESO;LAESO;DENMARK;57.27777778;11.00138889;7.62
EKLV;N/A;;LEMVIK;DENMARK;0;0;0
EKMB;N/A;LOLLAND FALSTER MARIBO;MARIBO;DENMARK;54.69916667;11.44;4.8768
EKMN;N/A;;KOSTER VIG;DENMARK;0;0;0
EKNM;N/A;;MORSO;DENMARK;0;0;0
EKNS;N/A;;NAKSKOV;DENMARK;0;0;0
EKOD;ODE;ODENSE;ODENSE;DENMARK;55.47611111;10.32916667;17.0688
EKPB;N/A;KRUSA PADBORG;KRUSA-PADBORG;DENMARK;54.87027778;9.279166667;26.8224
EKRD;N/A;;RANDERS;DENMARK;0;0;0
EKRK;RKE;ROSKILDE;COPENHAGEN;DENMARK;55.58555556;12.13138889;44.5008
EKRN;RNN;BORNHOLM RONNE;RONNE;DENMARK;55.06305556;14.75944444;15.8496
EKRR;N/A;;RO;DENMARK;0;0;0
EKRS;N/A;;RINGSTED;DENMARK;0;0;0
EKSB;SGD;SONDERBORG;SOENDERBORG;DENMARK;54.96416667;9.791666667;7.3152
EKSD;N/A;;SPJALD;DENMARK;0;0;0
EKSN;N/A;SINDAL;SINDAL;DENMARK;57.50333333;10.22916667;28.0416
EKSP;SKS;SKRYDSTRUP;SKRYDSTRUP;DENMARK;55.22527778;9.263888889;42.9768
EKSS;N/A;;SAMSO;DENMARK;0;0;0
EKST;N/A;;SYDFYN;DENMARK;0;0;0
EKSV;N/A;SKIVE;SKIVE;DENMARK;56.55;9.172777778;22.5552
EKTD;N/A;;TONDER;DENMARK;0;0;0
EKTS;TED;THISTED;THISTED;DENMARK;57.06861111;8.705;7.0104
EKVA;N/A;VANDEL;VANDEL;DENMARK;55.69694444;9.193333333;73.4568
EKVB;N/A;;VIBORG;DENMARK;0;0;0
EKVD;N/A;KOLDING VAMDRUP;KOLDING;DENMARK;55.43611111;9.330833333;43.5864
EKVG;FAE;VAGAR;VAGAR;FAROE ISL.;62.06361111;-7.276944444;85.344
EKVH;N/A;AARS;VESTHIMMERLAND;DENMARK;56.84694444;9.458611111;36.2712
EKVJ;STA;STAUNING;STAUNING;DENMARK;55.99;8.353888889;5.1816
EKVL;N/A;VAERLOSE;VAERLOSE;DENMARK;55.76722222;12.34333333;17.6784
EKYT;AAL;AALBORG;AALBORG;DENMARK;57.09277778;9.848888889;3.048
ELLX;LUX;FINDEL INTERNATIONAL AIRPORT;LUXEMBURG;LUXEMBURG;49.62638889;6.211388889;376.1232
ELWZ;N/A;;WILTZ;LUXEMBURG;0;0;0
ENAL;AES;VIGRA;ALESUND;NORWAY;62.56027778;6.11;21.0312
ENAN;ANX;ANDOYA;ANDOYA;NORWAY;69.2925;16.14416667;13.1064
ENAS;N/A;;NY ALESUND;NORWAY;0;0;0
ENAT;ALF;ALTA;ALTA;NORWAY;69.97694444;23.36611111;2.7432
ENBA;N/A;;BARENTSBURG;NORWAY;0;0;0
ENBJ;N/A;;BJORNOYA;NORWAY;0;0;0
ENBL;N/A;BRINGELAND;FORDE;NORWAY;61.3925;5.764166667;318.8208
ENBM;N/A;BOEMOEN;BOMOEN;NORWAY;60.63861111;6.501388889;91.44
ENBN;BNN;BRONNOY;BRONNOYSUND;NORWAY;65.45916667;12.21361111;7.62
ENBO;BOO;BODO;BODOE;NORWAY;67.26888889;14.36333333;12.8016
ENBR;BGO;BERGEN FLESLAND;BERGEN;NORWAY;60.29333333;5.218055556;50.292
ENBS;BJF;BATSFJORD;BATSFJORD;NORWAY;70.6;29.6925;149.352
ENBV;BVG;;BERLEVAG;NORWAY;0;0;0
ENCN;KRS;KRISTIANSAND KJEVIK;KRISTIANSAND;NORWAY;58.20416667;8.085277778;17.3736
ENDI;N/A;DAGALI;DAGLI;NORWAY;60.41666667;8.513888889;797.9664
ENDU;BDU;BARDUFOSS;BARDUFOSS;NORWAY;69.05555556;18.54027778;76.8096
ENEG;N/A;;EGGEMDEN;NORWAY;0;0;0
ENEK;N/A;;EKOFISK;NORWAY;0;0;0
ENEV;EVE;EVENES;EVENES;NORWAY;68.49111111;16.67805556;25.6032
ENFA;N/A;;FROYA;NORWAY;0;0;0
% ENFB;FBU;OSLO FORNEBU;OSLO;NORWAY;59.89555556;10.61694444;16.764
ENFG;VDB;FAGERNES LEIRIN;FAGERNES;NORWAY;61.01111111;9.293055556;822.0456
ENFL;FRO;FLORO;FLORO;NORWAY;61.58388889;5.025;11.2776
ENFO;N/A;;FORHUS;NORWAY;0;0;0
ENFR;N/A;;FRIGG;NORWAY;0;0;0
ENFY;N/A;;FYRESDAL;NORWAY;0;0;0
ENFZ;N/A;;FRITZOE;NORWAY;0;0;0
ENGA;N/A;;GULLFAKS A;NORWAY;0;0;0
ENGC;N/A;;GULLFAX C;NORWAY;0;0;0
ENGM;OSL;OSLO GARDERMOEN;OSLO;NORWAY;60.19388889;11.10027778;207.5688
ENGN;N/A;;GRIMSMOEN;NORWAY;0;0;0
ENHA;HMR;STAFSBERG;HAMAR;NORWAY;60.81833333;11.06722222;222.504
ENHD;HAU;HAUGESUND KARMOY;HAUGESUND;NORWAY;59.345;5.208333333;23.1648
ENHF;HFT;;HAMMERFEST;NORWAY;0;0;0
ENHK;HAA;HASVIK;HASVIK;NORWAY;70.48666667;22.13972222;6.4008
ENHN;N/A;;HORNMOEN;NORWAY;0;0;0
ENHO;N/A;;HOPEN;NORWAY;0;0;0
ENHS;N/A;;HOKKSUND;NORWAY;0;0;0
ENHV;HVG;;HONNINGSVAG;NORWAY;0;0;0
ENIS;N/A;;ISFJORD;NORWAY;0;0;0
ENJA;N/A;;JAN MAYEN ISLAND;NORWAY;0;0;0
ENJB;N/A;;JARLSBERG;NORWAY;0;0;0
ENKA;N/A;;KAUTOKEINO;NORWAY;0;0;0
ENKB;KSU;KRISTIANSUND KVERNBERGET;KRISTIANSUND;NORWAY;63.11166667;7.824444444;62.1792
ENKJ;N/A;KJELLER;KJELLER;NORWAY;59.96916667;11.03583333;107.8992
ENKR;KKN;KIRKENES HOYBUKTMOEN;KIRKENES;NORWAY;69.725;29.8875;86.2584
ENLI;FAN;LISTA;LISTA;NORWAY;58.10027778;6.625;8.8392
ENLK;LKN;;LEKNES;NORWAY;0;0;0
ENML;MOL;ARO;MOLDE;NORWAY;62.74611111;7.2725;3.048
ENMR;MEH;;MEHAMN;NORWAY;0;0;0
ENMS;MJF;KJAERSTAD;MOSJOEN;NORWAY;65.78388889;13.21472222;72.2376
ENNA;LKL;BANAK;BANAK;NORWAY;70.06861111;24.97333333;7.62
ENNK;NVK;;NARKVIK;NORWAY;0;0;0
ENNM;OSY;;NAMSOS;NORWAY;0;0;0
ENNO;N/A;NOTODDEN;NOTODDEN;NORWAY;59.56555556;9.211666667;19.2024
ENOA;N/A;;OSEBERG;NORWAY;0;0;0
ENOL;OLA;ORLAND;ORLAND;NORWAY;63.69888889;9.603888889;8.5344
ENOV;HOV;;ORSTA-VOLDA;NORWAY;0;0;0
ENPY;N/A;;PYRAMIDEN;NORWAY;0;0;0
ENRA;N/A;;MO I RANA;NORWAY;0;0;0
ENRM;N/A;;RORVIK;NORWAY;0;0;0
ENRO;RRS;ROEROS;ROROS;NORWAY;62.57833333;11.34222222;626.0592
ENRS;RET;;ROST;NORWAY;0;0;0
ENRY;N/A;RYGGE;RYGGE;NORWAY;59.37888889;10.78555556;53.0352
ENSA;N/A;;SVEA;NORWAY;0;0;0
ENSB;LYR;SVALBARD LONGYEAR;SVALBARD;NORWAY;78.24611111;15.46555556;26.8224
ENSD;SDN;;SANDANE;NORWAY;0;0;0
ENSF;N/A;;STATFJORDA;NORWAY;0;0;0
ENSG;SOG;SOGNDAL HAUKASEN;SOGNDAL;NORWAY;61.15611111;7.136388889;498.0432
ENSH;SVJ;;SVOLVAER;NORWAY;0;0;0
ENSK;SKN;;STOKMARKNES;NORWAY;0;0;0
ENSN;SKE;SKIEN GEITERYGGEN;SKIEN;NORWAY;59.185;9.566944444;141.1224
ENSO;SRP;SOERSTOKKEN;STORD;NORWAY;59.79166667;5.340833333;48.768
ENSR;SOJ;SORKJOSEN;SORKJOSEN;NORWAY;69.78694444;20.95944444;0.6096
ENSS;N/A;SVARTNES;SVARTNES;NORWAY;70.35527778;31.04472222;12.8016
ENST;SSJ;STOKKA;SANDNESSJOEN;NORWAY;65.95666667;12.46888889;17.0688
ENTC;TOS;TROMSO;TROMSO;NORWAY;69.68333333;18.91888889;9.4488
ENTO;TRF;TORP;TORP;NORWAY;59.18666667;10.25861111;87.1728
ENVA;TRD;TRONDHEIM VAERNES;TRONDHEIM;NORWAY;63.4575;10.93972222;17.0688
ENVD;VDS;;VADSO;NORWAY;0;0;0
ENVY;N/A;;VAEROY;NORWAY;0;0;0
ENZV;SVG;STAVANGER SOLA;STAVANGER;NORWAY;58.87666667;5.637777778;8.8392
EPBC;N/A;;WARSAW;POLAND;0;0;0
EPBK;N/A;;BIALYSTOK;POLAND;0;0;0
EPGD;GDN;REBIECHOWO;GDANSK;POLAND;54.3775;18.46611111;148.7424
EPGI;N/A;;GRUDZIADZ;POLAND;0;0;0
EPJG;N/A;;JELENIA GORA;POLAND;0;0;0
EPKA;N/A;;KIELCE;POLAND;0;0;0
EPKE;N/A;;KETRZYN;POLAND;0;0;0
EPKK;KRK;BALICE JP II INTERNATIONAL AIRPORT;KRAKOW;POLAND;50.0775;19.78472222;241.0968
EPKM;N/A;MUCHOWIEC;KATOWICE;POLAND;50.23833333;19.035;277.0632
EPKO;N/A;ZEGRZE POMORSKIE;KOSZALIN;POLAND;54.04222222;16.26361111;75.8952
EPKR;N/A;;KROSNO;POLAND;0;0;0
EPKT;KTW;PYRZOWICE;KATOWICE;POLAND;50.47416667;19.08;303.276
EPLL;N/A;LUBLINEK;LODZ;POLAND;51.72194444;19.39805556;184.0992
EPLS;N/A;;LESZNO;POLAND;0;0;0
EPML;N/A;MIELEC;MIELEC;POLAND;50.32222222;21.46194444;167.0304
EPNT;N/A;;NOWY TARG;POLAND;0;0;0
EPOD;N/A;;OLSZTYN;POLAND;0;0;0
EPPO;POZ;LAWICA;POZNAN;POLAND;52.42111111;16.82638889;93.8784
EPPT;N/A;;PITRKOWTRYBUNALAKY;POLAND;0;0;0
EPRG;N/A;;RYBNIK;POLAND;0;0;0
EPRZ;RZE;JASIONKA;RZESZOW;POLAND;50.11;22.01888889;210.9216
EPSC;SZZ;GOLENIOW;SZCZECHIN;POLAND;53.58472222;14.90194444;46.9392
EPSD;N/A;DABIE;SZCZECHIN;POLAND;53.39194444;14.63361111;0.9144
EPSK;OSP;REDZIKOWO;SLUPSK;POLAND;54.47888889;17.1075;66.1416
EPSN;N/A;SWIDWIN;SHAPAJA;PERU;53.79055556;15.82805556;117.348
EPSW;N/A;;SWIDNIK;POLAND;0;0;0
EPVN;N/A;;VILA DAS NEVES;SAO TOME & PRINCIPE;0;0;0
EPWA;WAW;OKECIE;WARSAW;POLAND;52.16555556;20.96694444;110.3376
EPWR;WRO;STRACHOWICE;WROCLAW;POLAND;51.1025;16.88583333;123.1392
EPZG;IEG;BABIMOST;ZIELONA GORA;POLAND;52.13861111;15.79861111;59.1312
EPZP;N/A;;ZILONA GORA;POLAND;0;0;0
EPZR;N/A;;ZAR;POLAND;0;0;0
ESCA;N/A;;STOCKHOLM;SWEDEN;0;0;0
ESCF;N/A;MALMEN;LINKOEPING;SWEDEN;58.40222222;15.52555556;93.8784
ESCK;N/A;BRAVALLA;NORRKOEPING;SWEDEN;58.61083333;16.10333333;27.432
ESCL;SOO;;SODERHAMN;SWEDEN;0;0;0
ESCM;N/A;UPPSALA;UPPSALA;SWEDEN;59.89722222;17.58833333;20.7264
ESCN;N/A;TULLINGE;STOCKHOLM;SWEDEN;59.18083333;17.91222222;53.9496
ESDA;N/A;;LJUNGBYHED;SWEDEN;0;0;0
ESDB;AGH;ANGELHOLM;ANGELHOLM;SWEDEN;56.29583333;12.84694444;20.7264
ESDF;RNB;RONNEBY;RONNEBY;SWEDEN;56.26666667;15.265;58.2168
ESFH;N/A;HASSLOSA;HASSLOSA;SWEDEN;58.40916667;13.2625;79.8576
ESFI;N/A;KNISLINGE;KNISLINGE;SWEDEN;56.18361111;14.13222222;32.004
ESFJ;N/A;;SJOBO;SWEDEN;0;0;0
ESFM;N/A;MOHOLM;MOHOLM;SWEDEN;58.59805556;14.11361111;91.1352
ESFQ;N/A;KOSTA;KOSTA;SWEDEN;56.84416667;15.4525;230.124
ESFR;N/A;RADA;RADA;SWEDEN;58.49805556;13.05305556;70.104
ESFY;N/A;BYHOLMA;BYHOLMA;SWEDEN;56.785;13.60166667;152.4
ESGA;N/A;;BACKAMO;SWEDEN;0;0;0
ESGC;N/A;;ALLEBERG;SWEDEN;0;0;0
ESGG;GOT;LANDVETTER;GOTHENBORG;SWEDEN;57.66277778;12.27972222;154.2288
ESGH;N/A;;HERRIJUNGA;SWEDEN;0;0;0
ESGI;N/A;;ALINGSAS;SWEDEN;0;0;0
ESGJ;JKG;JONKOPING;JOENKOEPING;SWEDEN;57.7575;14.06861111;225.8568
ESGK;N/A;FALKOPING;FALKOPING;SWEDEN;58.16972222;13.58777778;239.268
ESGL;LDK;LIDKOPING;LIDKOPING;SWEDEN;58.46527778;13.17416667;60.96
ESGO;N/A;;VARGARDA;SWEDEN;0;0;0
ESGP;GSE;SAVE;GOTHENBORG;SWEDEN;57.77472222;11.87027778;17.9832
ESGR;KVB;SKOVDE;SKOVDE;SWEDEN;58.45638889;13.9725;98.7552
ESGS;N/A;;STROMSTAD;SWEDEN;0;0;0
ESGT;THN;TROLLHATTAN VANERSBORG;TROLLHATTAN;SWEDEN;58.31805556;12.345;41.7576
ESGV;N/A;;VARBERG;SWEDEN;0;0;0
ESGX;N/A;;BORAS-VIARED;SWEDEN;0;0;0
ESGY;N/A;;SAFFLE;SWEDEN;0;0;0
ESHB;N/A;;GOTHENBORG;SWEDEN;0;0;0
ESHC;N/A;;STOCKHOLM;SWEDEN;0;0;0
ESHE;N/A;;LANDSKRONA;SWEDEN;0;0;0
ESHG;N/A;;STOCKHOLM;SWEDEN;0;0;0
ESHH;AGH;;HELSINGBORG;SWEDEN;0;0;0
ESHL;N/A;;STOCKHOLM;SWEDEN;0;0;0
ESHM;JMM;;MALMOE;SWEDEN;0;0;0
ESHN;N/A;;NACKA;SWEDEN;0;0;0
ESHO;N/A;;SKOVDE HOSPITAL;SWEDEN;0;0;0
ESHR;N/A;;AKERSBERGA;SWEDEN;0;0;0
ESHU;N/A;;UPPSALA;SWEDEN;0;0;0
ESHV;N/A;;VAXHOLM;SWEDEN;0;0;0
ESHW;N/A;;VASTERVIK HOSPITAL;SWEDEN;0;0;0
ESIA;N/A;KARLSBORG;KARLSBORG;SWEDEN;58.51361111;14.50694444;93.8784
ESIB;N/A;SATENAS;SATENAS;SWEDEN;58.42638889;12.71416667;55.1688
ESKA;N/A;GIMO;GIMO;SWEDEN;60.13277778;18.105;18.288
ESKB;N/A;BARKARBY;STOCKHOLM;SWEDEN;59.41861111;17.89055556;15.24
ESKC;N/A;;SUNDBRO;SWEDEN;0;0;0
ESKD;N/A;;DALA-JARNA;SWEDEN;0;0;0
ESKG;N/A;;GRYTTJOM;SWEDEN;0;0;0
ESKH;N/A;;EKSHARAD;SWEDEN;0;0;0
ESKK;KSK;KARLSKOGA;KARLSKOGA;SWEDEN;59.34583333;14.49583333;121.92
ESKM;MXX;MORA;MORA;SWEDEN;60.95777778;14.51111111;193.2432
ESKN;NYO;SKAVSTA;STOCKHOLM;SWEDEN;58.78861111;16.91194444;42.672
ESKO;N/A;;MUNKFORS;SWEDEN;0;0;0
ESKR;N/A;;STOCKHOLM RADIO;SWEDEN;0;0;0
ESKS;N/A;STRANGNAS;STRANGNAS;SWEDEN;59.31388889;17.10916667;35.052
ESKT;N/A;;TIERP;SWEDEN;0;0;0
ESKU;N/A;;SUNNE;SWEDEN;0;0;0
ESKV;N/A;ARVIKA;ARVIKA;SWEDEN;59.67583333;12.63916667;72.2376
ESKX;N/A;BJORKVIK;BJORKVIK;SWEDEN;58.79083333;16.57083333;45.1104
ESMA;N/A;EMMABODA;EMMABODA;SWEDEN;56.61055556;15.60472222;134.7216
ESMB;N/A;;BORGLANDA;SWEDEN;0;0;0
ESMD;N/A;;HASSLEHOLM;SWEDEN;0;0;0
ESME;N/A;;ESLOV;SWEDEN;0;0;0
ESMF;N/A;;FAGERHULT;SWEDEN;0;0;0
ESMG;N/A;FERINGE;LJUNGBY;SWEDEN;56.95027778;13.92166667;162.7632
ESMH;N/A;;HOGANAS;SWEDEN;0;0;0
ESMI;N/A;;SOVDEBORG;SWEDEN;0;0;0
ESMJ;N/A;;KAGEROD;SWEDEN;0;0;0
ESMK;KID;KRISTIANSTAD;KRISTIANSTAD;SWEDEN;55.92166667;14.08527778;23.1648
ESML;JLD;LANDSKRONA;LANDSKRONA;SWEDEN;55.94472222;12.86083333;59.1312
ESMN;N/A;;LUND;SWEDEN;0;0;0
ESMO;OSK;OSKARSHAMN;OSKARSHAMN;SWEDEN;57.35027778;16.49777778;29.2608
ESMP;N/A;ANDERSTORP;ANDERSTORP;SWEDEN;57.26416667;13.59916667;154.5336
ESMQ;KLR;KALMAR;KALKMAR;SWEDEN;56.68527778;16.2875;5.1816
ESMR;N/A;;TRELLEBORG;SWEDEN;0;0;0
ESMS;MMX;STURUP;MALMOE;SWEDEN;55.53;13.37138889;71.9328
ESMT;HAD;HALMSTAD;HALMSTAD;SWEDEN;56.69111111;12.82;30.7848
ESMV;N/A;HAGSHULT;HAGSHULT;SWEDEN;57.29222222;14.13722222;169.4688
ESMX;VXO;KRONOBERG;VAXJO;SWEDEN;56.92888889;14.72777778;185.928
ESMY;N/A;;SMALANDSSTENAR;SWEDEN;0;0;0
ESMZ;N/A;;OLANDA;SWEDEN;0;0;0
ESNA;N/A;HALLVIKEN;HALLVIKEN;SWEDEN;63.73833333;15.45833333;341.0712
ESNB;N/A;;SOLLEFTEA;SWEDEN;0;0;0
ESNC;N/A;HEDLANDA;HEDE;SWEDEN;62.40888889;13.74722222;445.008
ESND;EVG;SVEG;SVEG;SWEDEN;62.04777778;14.42277778;359.0544
ESNF;N/A;FARILA;FARILA;SWEDEN;61.89805556;15.70527778;206.0448
ESNG;GEV;GALLIVARE;GALLIVARE;SWEDEN;67.13222222;20.81444444;313.0296
ESNH;HUV;HUDIKSVALL;HUDIKSVALL;SWEDEN;61.76805556;17.08055556;28.956
ESNI;N/A;KUBBE;KUBBE;SWEDEN;63.63361111;17.93972222;249.936
ESNJ;N/A;JOKKMOKK;JOKKMOKK;SWEDEN;66.49611111;20.14694444;275.5392
ESNK;KRF;KRAMFORS SOLLEFTEA;KRAMFORS;SWEDEN;63.04833333;17.76861111;10.3632
ESNL;LYC;LYCKSELE;LYCKSELE;SWEDEN;64.54805556;18.71611111;211.836
ESNM;N/A;OPTAND;OPTAND;SWEDEN;63.12861111;14.80277778;376.7328
ESNN;SDL;SUNDSVALL HARNOSAND;SUNDSVALL;SWEDEN;62.52805556;17.44388889;4.8768
ESNO;OER;ORNSKOLDSVIK;ORNSKOLDSVIK;SWEDEN;63.40833333;18.99;107.8992
ESNP;N/A;PITEA;PITEA;SWEDEN;65.39944444;21.26527778;13.1064
ESNQ;KRN;KIRUNA;KIRUNA;SWEDEN;67.82194444;20.33666667;459.6384
ESNR;N/A;ORSA;ORSA;SWEDEN;61.19;14.7125;208.1784
ESNS;SFT;SKELLEFTEA;SKELLEFTEA;SWEDEN;64.62472222;21.07666667;47.8536
ESNT;N/A;SATTNA;SATTNA;SWEDEN;62.48111111;17.00277778;270.0528
ESNU;UME;UMEA;UMEA;SWEDEN;63.79166667;20.2825;7.3152
ESNV;VHM;VILHELMINA;VILHELMINA;SWEDEN;64.57888889;16.83333333;347.472
ESNX;AJR;ARVIDSJAUR;ARVIDSJAUR;SWEDEN;65.59;19.28166667;379.476
ESOE;ORB;OREBRO;OREBRO;SWEDEN;59.22361111;15.03777778;57.3024
ESOH;N/A;HAGFORS;HAGFORS;SWEDEN;60.02;13.57888889;144.4752
ESOR;N/A;;RESCUE COORDIN. CTR.;SWEDEN;0;0;0
ESOW;VST;VASTERAS;VASTERAS;SWEDEN;59.58944444;16.63361111;6.4008
ESPA;LLA;KALLAX;LULEA;SWEDEN;65.54361111;22.12194444;19.812
ESPC;OSD;FROSON;OSTERSUND;SWEDEN;63.19388889;14.50194444;375.2088
ESPD;N/A;;GUNNARN;SWEDEN;0;0;0
ESPE;N/A;VIDSEL;VIDSEL;SWEDEN;65.87527778;20.14972222;181.9656
ESPG;N/A;;BODEN;SWEDEN;0;0;0
ESPJ;N/A;HEDEN;HEDEN;SWEDEN;65.83611111;21.47138889;39.0144
ESQO;N/A;ARBOGA;ARBOGA;SWEDEN;59.38638889;15.92388889;10.0584
ESQP;N/A;;BERGA;SWEDEN;0;0;0
ESSA;ARN;ARLANDA;STOCKHOLM;SWEDEN;59.65194444;17.91861111;37.7952
ESSB;BMA;BROMMA;STOCKHOLM;SWEDEN;59.35416667;17.94138889;14.3256
ESSC;N/A;;ESKILSTUNA;SWEDEN;0;0;0
ESSD;BLE;BORLANGE;BORLANGE;SWEDEN;60.42194444;15.515;153.3144
ESSE;N/A;;STOCKHOLM;SWEDEN;0;0;0
ESSF;HLF;HULTSFRED;HULTSFRED;SWEDEN;57.52555556;15.82388889;111.5568
ESSG;N/A;;LUDVIKA;SWEDEN;0;0;0
ESSH;N/A;;LAXA;SWEDEN;0;0;0
ESSI;N/A;;VISINGSO;SWEDEN;0;0;0
ESSK;GVX;GAVLE SANDVIKEN;GAVLE;SWEDEN;60.59333333;16.95138889;68.2752
ESSL;LPI;SAAB;LINKOEPING;SWEDEN;58.40611111;15.68027778;52.4256
ESSM;N/A;;BATTFORSHEDEN;SWEDEN;0;0;0
ESSP;NRK;KUNGSANGEN;NORRKOEPING;SWEDEN;58.58611111;16.25055556;9.7536
ESSQ;KSD;;KARLSTAD;SWEDEN;0;0;0
ESST;N/A;TORSBY;TORSBY;SWEDEN;60.1575;12.99111111;118.5672
ESSU;N/A;ESKILSTUNA;ESKILSTUNA;SWEDEN;59.35083333;16.70833333;42.3672
ESSV;VBY;VISBY;VISBY;SWEDEN;57.66277778;18.34611111;50.9016
ESSW;N/A;;VASTERVIK;SWEDEN;0;0;0
ESSX;N/A;;VASTERAS;SWEDEN;0;0;0
ESSZ;N/A;;VANGSO;SWEDEN;0;0;0
ESUA;N/A;AMSELE;AMSELE;SWEDEN;64.57055556;19.31416667;213.36
ESUB;N/A;;ARBRA;SWEDEN;0;0;0
ESUD;N/A;STORUMAN;MOHED;SWEDEN;64.96083333;17.69638889;278.892
ESUE;N/A;IDRE;IDRE;SWEDEN;61.86861111;12.69055556;451.104
ESUF;N/A;FALLFORS;FALLFORS;SWEDEN;65.10638889;20.76055556;195.072
ESUG;N/A;;GARGNAS;SWEDEN;0;0;0
ESUH;N/A;;HARNOSAND;SWEDEN;0;0;0
ESUJ;N/A;;ANGE;SWEDEN;0;0;0
ESUK;N/A;KALIXFORS;KALIXFORS;SWEDEN;67.76472222;20.25722222;472.44
ESUL;N/A;;LJUSDAL;SWEDEN;0;0;0
ESUR;N/A;;RAMSELE;SWEDEN;0;0;0
ESUS;N/A;;ASELE;SWEDEN;0;0;0
ESUT;N/A;HEMAVAN;HEMAVAN;SWEDEN;65.80611111;15.08277778;458.1144
ESUV;N/A;;ALVSBYN;SWEDEN;0;0;0
ESUY;N/A;;EDSBYN;SWEDEN;0;0;0
ESVA;N/A;;AVESTA;SWEDEN;0;0;0
ESVG;N/A;;GAGNEF;SWEDEN;0;0;0
ESVH;N/A;;HALLEFORS;SWEDEN;0;0;0
ESVK;N/A;;KATRINEHOLM;SWEDEN;0;0;0
ESVM;N/A;;MALUNG;SWEDEN;0;0;0
ESVQ;N/A;;KOPING;SWEDEN;0;0;0
ESVS;N/A;;SILJANSAS;SWEDEN;0;0;0
ETAD;SPM;SPANGDAHLEM AB;SPANGDAHLEM;GERMANY;49.9725;6.6925;364.8456
ETAR;RMS;RAMSTEIN AB;RAMSTEIN;GERMANY;49.4375;7.601388889;238.3536
ETAS;N/A;;SEMBACH;GERMANY;0;0;0
ETAV;N/A;;SIEGENBURG;GERMANY;0;0;0
ETBA;N/A;;AACHEN;GERMANY;0;0;0
ETBB;N/A;;BUTZWEILERHOF;GERMANY;0;0;0
ETBW;N/A;;WEIDEN;GERMANY;0;0;0
ETCC;N/A;;GOCH;GERMANY;0;0;0
ETCE;N/A;;MESSSTETTEN;GERMANY;0;0;0
ETCH;N/A;;HUERTH;GERMANY;0;0;0
ETCK;N/A;;KALKAR;GERMANY;0;0;0
ETCM;N/A;;MUENSTER;GERMANY;0;0;0
ETCW;N/A;;COLOGNE;GERMANY;0;0;0
ETCX;N/A;;MECHERNICH;GERMANY;0;0;0
ETCZ;N/A;;FRANKFURT;GERMANY;0;0;0
ETEB;N/A;;ANSBACH;GERMANY;0;0;0
ETED;N/A;;KAISERSLAUTERN;GERMANY;0;0;0
ETEE;N/A;;HEIDELBERG;GERMANY;0;0;0
ETEF;N/A;;BABENHAUSEN;GERMANY;0;0;0
ETEH;N/A;;BAD KREUZNACH;GERMANY;0;0;0
ETEJ;N/A;BAMBERG AAF;BAMBERG;GERMANY;49.92027778;10.91416667;250.8504
ETEK;N/A;BAUMHOLDER AAF;BAUMHOLDER;GERMANY;49.65;7.3;441.96
ETEP;N/A;;BUEDINGEN;GERMANY;0;0;0
ETEU;GHF;GIEBELSTADT AAF;GIEBELSTADT;GERMANY;49.64805556;9.966388889;298.0944
ETEW;N/A;;FUERTH;GERMANY;0;0;0
ETEZ;N/A;;GERMERSHEIM;GERMANY;0;0;0
ETFB;N/A;;BREMEN;GERMANY;0;0;0
ETFC;N/A;;FRANKFURT;GERMANY;0;0;0
ETFD;N/A;;DUESSELDORF;GERMANY;0;0;0
ETFR;N/A;;RAMSTEIN;GERMANY;0;0;0
ETFT;N/A;;BERLIN;GERMANY;0;0;0
ETGA;N/A;;ANKUM;GERMANY;0;0;0
ETGB;N/A;;BERGEN;GERMANY;0;0;0
ETGE;N/A;;EMDEN;GERMANY;0;0;0
ETGF;N/A;;FRITZLAR;GERMANY;0;0;0
ETGG;N/A;;GLUECKSBURG;GERMANY;0;0;0
ETGH;N/A;;KOBLENZ;GERMANY;0;0;0
ETGI;N/A;;IDAR-OBERSTEIN;GERMANY;0;0;0
ETGJ;N/A;;JENGEN;GERMANY;0;0;0
ETGK;N/A;;KUEMMERSBRUCK;GERMANY;0;0;0
ETGL;N/A;;MUENSTER;GERMANY;0;0;0
ETGM;N/A;;MEPPEN;GERMANY;0;0;0
ETGN;N/A;;BREDESTEDT;GERMANY;0;0;0
ETGO;N/A;;FUERSTENWALDE;GERMANY;0;0;0
ETGP;N/A;;PODSDAM;GERMANY;0;0;0
ETGR;N/A;;MUENSTER;GERMANY;0;0;0
ETGS;N/A;;SIGMARINGEN;GERMANY;0;0;0
ETGT;N/A;;TRABEN-TRARBACH;GERMANY;0;0;0
ETGU;N/A;;ULM;GERMANY;0;0;0
ETGV;N/A;;FUERSTENFELDBRUCK;GERMANY;0;0;0
ETGW;N/A;;WITSTOCK;GERMANY;0;0;0
ETGX;N/A;;TRABEN-TRARBACH;GERMANY;0;0;0
ETGY;N/A;;KALKAR;GERMANY;0;0;0
ETGZ;N/A;;MESSSTETTEN;GERMANY;0;0;0
ETHA;N/A;;ALTENSTADT;GERMANY;0;0;0
ETHB;N/A;BUCKEBURG;BRUECKEBURG;GERMANY;52.27833333;9.081944444;70.104
ETHC;ZCN;CELLE;CELLE;GERMANY;52.59111111;10.02194444;39.0144
ETHE;N/A;RHEINE BENTLAGE;RHEINE-BRENTLANGE;GERMANY;52.29111111;7.386944444;39.3192
ETHF;N/A;FRITZLAR;FRITZLAR;GERMANY;51.11444444;9.285833333;172.5168
ETHH;N/A;;BONN;GERMANY;0;0;0
ETHI;N/A;ITZEHOE HUNGRIGER WOLF;ITZEHOE;GERMANY;53.99444444;9.578333333;24.9936
ETHL;N/A;LAUPHEIM;LAUPHEIM;GERMANY;48.22027778;9.91;538.2768
ETHM;N/A;MENDIG;MENDIG;GERMANY;50.36583333;7.315;181.9656
ETHN;N/A;NIEDERSTETTEN;NIEDERSTETTEN;GERMANY;49.39166667;9.958055556;468.1728
ETHR;N/A;ROTH;ROTH;GERMANY;49.2175;11.10055556;386.4864
ETHS;N/A;FASSBERG;FASSBERG;GERMANY;52.91916667;10.18361111;74.676
ETHT;N/A;COTTBUS;COTTBUS;GERMANY;51.76777778;14.29194444;69.1896
ETIC;N/A;GRAFENWOHR AAF;GRAFENWOEHR;GERMANY;49.69944444;11.94111111;415.4424
ETID;ZNF;HANAU AAF;HANAU;GERMANY;50.16916667;8.961388889;112.1664
ETIE;QHD;HEIDELBERG AAF;HEIDELBERG;GERMANY;49.39333333;8.651944444;109.1184
ETIH;N/A;HOHENFELS AAF;HOHENFELS;GERMANY;49.21805556;11.83611111;443.484
ETIK;N/A;;ILLESHEIM;GERMANY;0;0;0
ETIN;N/A;KITZINGEN AAF;KITZINGEN;GERMANY;49.74305556;10.20055556;210.0072
ETIP;N/A;;LANDSTUHL;GERMANY;0;0;0
ETIT;N/A;;NUERNBERG;GERMANY;0;0;0
ETIU;N/A;;HEIDELBERG;GERMANY;0;0;0
ETIY;N/A;;LANDSTUHL;GERMANY;0;0;0
ETJA;N/A;;KALKAR;GERMANY;0;0;0
ETJC;N/A;;MESSSTETTEN;GERMANY;0;0;0
ETME;N/A;EGGEBEK;EGGEBECK;GERMANY;54.62472222;9.341388889;19.812
ETMK;N/A;;KIEL;GERMANY;0;0;0
ETMN;N/A;NORDHOLZ;NORDHOLZ;GERMANY;53.7675;8.658333333;22.5552
ETNA;N/A;;AHLHORN;GERMANY;0;0;0
ETND;N/A;DIEPHOLZ;DIEPHOLZ;GERMANY;52.58527778;8.340555556;38.7096
ETNG;GKE;GEILENKIRCHEN;GEILENKIRCHEN;GERMANY;50.96083333;6.0425;90.2208
ETNH;N/A;HOHN;HOHN;GERMANY;54.31194444;9.538055556;11.8872
ETNI;N/A;;BRIEST;GERMANY;0;0;0
ETNJ;N/A;JEVER;JEVER;GERMANY;53.53333333;7.888611111;7.3152
ETNK;N/A;;COLOGNE;GERMANY;0;0;0
ETNL;RLG;LAAGE;LAAGE;GERMANY;53.91805556;12.27916667;42.0624
ETNN;N/A;NORVENICH;NOERVENICH;GERMANY;50.83111111;6.658055556;117.6528
ETNP;N/A;HOPSTEN;HOPSTEN;GERMANY;52.33861111;7.541111111;39.3192
ETNR;N/A;PRESCHEN;PRESCHEN;GERMANY;51.66361111;14.63361111;101.8032
ETNS;N/A;SCHLESWIG;SCHLESWIG;GERMANY;54.45916667;9.516111111;22.2504
ETNT;N/A;WITTMUNDHAFEN;WITTMUNDHAFEN;GERMANY;53.54777778;7.667222222;7.9248
ETNU;N/A;NEUBRANDENBURG;NEUBRANDENBURG;GERMANY;53.60194444;13.30583333;69.4944
ETNW;N/A;WUNSTORF;WUNSTORF;GERMANY;52.45722222;9.426944444;56.9976
ETOA;N/A;;SCHWEINFURT;GERMANY;0;0;0
ETOC;N/A;;ECHTERDINGEN;GERMANY;0;0;0
ETOI;N/A;VILSECK AAF;VILSECK;GERMANY;49.63361111;11.76722222;412.3944
ETOJ;N/A;;BONN;GERMANY;0;0;0
ETOK;N/A;;FRANKFURT;GERMANY;0;0;0
ETOM;N/A;;WORMS;GERMANY;0;0;0
ETOQ;N/A;;HEIDELBERG;GERMANY;0;0;0
ETOR;N/A;COLEMAN AAF;COLEMAN;GERMANY;49.56333333;8.463333333;94.1832
ETOU;N/A;WIESBADEN AAF;WIESBADEN;GERMANY;50.04972222;8.325277778;140.5128
ETOW;N/A;;WILDFLECKEN;GERMANY;0;0;0
ETOY;N/A;;LEIGHTON BARRACKS;GERMANY;0;0;0
ETRA;N/A;;GOCH;GERMANY;0;0;0
ETRB;N/A;;GLUECKSBURG;GERMANY;0;0;0
ETSA;N/A;LANDSBERG LECH;LANDSBERG;GERMANY;48.07055556;10.90583333;623.0112
ETSB;N/A;BUCHEL;BUECHEL;GERMANY;50.17361111;7.063333333;477.9264
ETSE;N/A;ERDING;ERDING;GERMANY;48.32222222;11.94861111;461.772
ETSF;FEL;FURSTENFELDBRUCK;FUERSTENFELDBRUCK;GERMANY;48.20555556;11.26694444;519.0744
ETSH;N/A;HOLZDORF;HOLZDORF;GERMANY;51.76777778;13.1675;81.0768
ETSI;N/A;INGOLSTADT MANCHING;INGOLSTADT;GERMANY;48.71555556;11.53388889;366.3696
ETSL;N/A;LECHFELD;LECHFELD;GERMANY;48.18611111;10.86222222;555.0408
ETSM;N/A;MEMMINGEN;MEMMINGEN;GERMANY;47.98861111;10.23944444;634.2888
ETSN;N/A;NEUBURG;NEUBURG;GERMANY;48.71083333;11.21111111;380.6952
ETSP;N/A;;PFERDSFELD;GERMANY;0;0;0
ETUD;N/A;;DETMOLD;GERMANY;0;0;0
ETUK;N/A;;RHEINDAHLEN;GERMANY;0;0;0
ETUL;LRC;LAARBRUCH;LAARBRUCH;GERMANY;51.60166667;6.1425;32.004
ETUN;N/A;;NORDHORN RANGE;GERMANY;0;0;0
ETUO;GUT;GUTERSLOH;GUETERSLOH;GERMANY;51.92277778;8.306111111;71.9328
ETUR;BGN;BRUGGEN;BRUEGGEN;GERMANY;51.19972222;6.131944444;73.4568
ETAA;N/A;;FRANKFURT;GERMANY;0;0;0
FABA;N/A;;BASAROOT;NAMIBIA;0;0;0
FABB;N/A;BRAKPAN;BRAKPAN;SOUTH AFRICA;-26.23861111;28.30166667;1615.44
FABC;N/A;;BETHANIEN;NAMIBIA;0;0;0
FABD;N/A;;BURGERSDORP;SOUTH AFRICA;0;0;0
FABE;VIY;BISHO;BISHO;SOUTH AFRICA;-32.89694444;27.27888889;594.36
FABF;N/A;;BEDFORD;SOUTH AFRICA;0;0;0
FABH;N/A;;BETHAL;SOUTH AFRICA;0;0;0
FABJ;N/A;;BITTERWASSER;NAMIBIA;0;0;0
FABK;N/A;;BLOEMHOF;SOUTH AFRICA;0;0;0
FABL;BFN;BLOEMFONTEIN;BLOEMFONTEIN;SOUTH AFRICA;-29.0925;26.30222222;1358.7984
FABM;N/A;BETHLEHEM;BETHLEHEM;SOUTH AFRICA;-28.24833333;28.33611111;1694.9928
FABN;N/A;;BARBERTON;SOUTH AFRICA;0;0;0
FABO;N/A;BOTHAVILLE;BOTHAVILLE;SOUTH AFRICA;-27.36666667;26.62916667;1291.1328
FABP;N/A;;BULTFONTEIN;SOUTH AFRICA;0;0;0
FABR;N/A;;BREDASDORP;SOUTH AFRICA;0;0;0
FABS;N/A;;BRITS;SOUTH AFRICA;0;0;0
FABU;N/A;;BUTTERWORTH;SOUTH AFRICA;0;0;0
FABV;N/A;;BRANDVLEI;SOUTH AFRICA;0;0;0
FABW;N/A;;BEAUFORT WEST;SOUTH AFRICA;0;0;0
FABX;N/A;;BEATRIX MINE;SOUTH AFRICA;0;0;0
FABZ;N/A;;BIZANA;SOUTH AFRICA;0;0;0
FACA;N/A;;MONTE CARLO;SOUTH AFRICA;0;0;0
FACB;N/A;;COLESBURG;SOUTH AFRICA;0;0;0
FACC;N/A;;CATHCART;SOUTH AFRICA;0;0;0
FACD;N/A;;CRADOCK;SOUTH AFRICA;0;0;0
FACH;N/A;;COOKHOUSE;SOUTH AFRICA;0;0;0
FACK;N/A;;CLOCOLAN;SOUTH AFRICA;0;0;0
FACN;N/A;;CARNAVON;SOUTH AFRICA;0;0;0
FACO;N/A;;COPPERTON;SOUTH AFRICA;0;0;0
FACR;N/A;CARLETONVILLE;CARLETONVILLE;SOUTH AFRICA;-26.36944444;27.35;1524
FACT;CPT;CAPE TOWN INTERNATIONAL;CAPE TOWN;SOUTH AFRICA;-33.96472222;18.60166667;46.0248
FACV;N/A;CALVINIA;CALVINIA;SOUTH AFRICA;-31.50027778;19.72583333;990.6
FACW;N/A;;CLANWILLIAM;SOUTH AFRICA;0;0;0
FADA;N/A;DE AAR MILITARY;DE AAR;SOUTH AFRICA;-30.63666667;23.92;1222.8576
FADB;N/A;DWAALBOOM;DWAALBOOM;SOUTH AFRICA;-24.805;26.83166667;1112.52
FADC;N/A;;DOUGLAS COLLIERY;SOUTH AFRICA;0;0;0
FADD;N/A;DUNDEE;DUNDEE;SOUTH AFRICA;-28.1825;30.22444444;1286.256
FADE;N/A;;DELMAS;SOUTH AFRICA;0;0;0
FADG;N/A;;DORDRECHT;SOUTH AFRICA;0;0;0
FADH;N/A;;DURNACOL;SOUTH AFRICA;0;0;0
FADI;N/A;;DUWISIB;NAMIBIA;0;0;0
FADL;N/A;;DALAREYVILLE;SOUTH AFRICA;0;0;0
FADM;N/A;;KOKSTAD;SOUTH AFRICA;0;0;0
FADN;DUR;DURBAN INTERNATIONAL;DURBAN;SOUTH AFRICA;-29.97;30.95027778;10.0584
FADO;N/A;;DENDRON;SOUTH AFRICA;0;0;0
FADR;N/A;;DUNNOTTAR;SOUTH AFRICA;0;0;0
FADS;N/A;;DORDABIS;NAMIBIA;0;0;0
FADV;N/A;;DEVON;SOUTH AFRICA;0;0;0
FAEC;N/A;;ESTCOURT;SOUTH AFRICA;0;0;0
FAED;N/A;;EDENBURG;SOUTH AFRICA;0;0;0
FAEG;N/A;;EGNEP;SOUTH AFRICA;0;0;0
FAEL;ELS;EAST LONDON;EAST LONDON;SOUTH AFRICA;-33.03555556;27.82583333;132.588
FAEM;N/A;;EMPANGENI;SOUTH AFRICA;0;0;0
FAEO;N/A;ERMELO;ERMELO;SOUTH AFRICA;-26.49527778;29.98;1737.36
FAER;ELL;ELLISRAS;ELLISRAS;SOUTH AFRICA;-23.72611111;27.6875;899.16
FAES;N/A;;ESHOWE;SOUTH AFRICA;0;0;0
FAET;N/A;;ELLIOT;SOUTH AFRICA;0;0;0
FAFA;N/A;;JAEGERSFONTEIN;SOUTH AFRICA;0;0;0
FAFB;N/A;FICKSBURG SENTRAOES;FICKSBURG;SOUTH AFRICA;-28.82305556;27.90888889;1620.012
FAFF;N/A;;FRANKFORT;SOUTH AFRICA;0;0;0
FAFK;N/A;;FISANTEKRAAL;SOUTH AFRICA;0;0;0
FAFO;N/A;;FORT BEAUFORT;SOUTH AFRICA;0;0;0
FAFR;N/A;;FRASERBURG;SOUTH AFRICA;0;0;0
FAGA;N/A;;GRANGE THE;SOUTH AFRICA;0;0;0
FAGB;N/A;;GOBABIS;NAMIBIA;0;0;0
FAGC;GCJ;GRAND CENTRAL;JOHANNESBURG;SOUTH AFRICA;-25.98611111;28.14;1623.6696
FAGE;N/A;;GOGH ISLAND;SOUTH AFRICA;0;0;0
FAGF;GFY;;GROOTFONTEIN;NAMIBIA;0;0;0
FAGG;GRJ;GEORGE;GEORGE;SOUTH AFRICA;-34.00527778;22.37888889;197.5104
FAGH;N/A;;GLEN GRAY;SOUTH AFRICA;0;0;0
FAGI;N/A;GIYANI;GIYANI;SOUTH AFRICA;-23.28361111;30.64972222;480.06
FAGJ;N/A;;GIFVLEI;SOUTH AFRICA;0;0;0
FAGL;N/A;;GROBLERSDAL;SOUTH AFRICA;0;0;0
FAGM;HCS;RAND;JOHANNESBURG;SOUTH AFRICA;-26.2425;28.15111111;1697.1264
FAGO;N/A;;GOWRIE;SOUTH AFRICA;0;0;0
FAGR;N/A;;GRAAFF REINET;SOUTH AFRICA;0;0;0
FAGS;N/A;;GIANTS CASTLE GAME;SOUTH AFRICA;0;0;0
FAGT;N/A;GRAHAMSTOWN;GRAHAMSTOWN;SOUTH AFRICA;-33.28472222;26.49805556;650.748
FAGV;N/A;;GRAVELOTTE;SOUTH AFRICA;0;0;0
FAGW;N/A;;MAGWA;SOUTH AFRICA;0;0;0
FAGY;N/A;GREYTOWN;GREYTOWN;SOUTH AFRICA;-29.12194444;30.58666667;1076.2488
FAHA;N/A;HARMONY;HARMONY;SOUTH AFRICA;-28.07861111;26.86111111;1245.4128
FAHB;N/A;;HARTEBEESPOORTDAM;SOUTH AFRICA;0;0;0
FAHC;N/A;;HOWICK;SOUTH AFRICA;0;0;0
FAHD;N/A;;HUMANSDORP;SOUTH AFRICA;0;0;0
FAHE;N/A;HENDRINA;PULLENSHOPE;SOUTH AFRICA;-25.97944444;29.61861111;1575.816
FAHF;N/A;;HENRY'S FLATS;SOUTH AFRICA;0;0;0
FAHG;GHC;HEIDELBERG;HEIDELBERG;SOUTH AFRICA;-26.50611111;28.39388889;1560.2712
FAHH;N/A;;HIBBERDENE;SOUTH AFRICA;0;0;0
FAHI;N/A;;HALALI;NAMIBIA;0;0;0
FAHJ;N/A;;HARDING;SOUTH AFRICA;0;0;0
FAHL;N/A;;HLUHLUWE;SOUTH AFRICA;0;0;0
FAHM;N/A;;HERMANUS;SOUTH AFRICA;0;0;0
FAHN;N/A;;HENTIES BAY;NAMIBIA;0;0;0
FAHO;N/A;HEILBRON;HEIBRON;SOUTH AFRICA;-27.27833333;27.99583333;1584.96
FAHP;N/A;;HOOPSTAD;SOUTH AFRICA;0;0;0
FAHR;N/A;HARRISMITH;HARRISMITH;SOUTH AFRICA;-28.235;29.10611111;1702.308
FAHS;HDS;HOEDSPRUIT AFS;HOEDSPRUIT;SOUTH AFRICA;-24.36861111;31.04861111;531.2664
FAHT;N/A;;HOEDSPRUIT;SOUTH AFRICA;0;0;0
FAHU;N/A;;HMS BASTARD MEMORIAL;SOUTH AFRICA;0;0;0
FAHV;N/A;GARIEP DAM;HENDRIK VERWOERDDAM;SOUTH AFRICA;-30.56194444;25.52805556;1272.8448
FAID;N/A;;IDUTYWA;SOUTH AFRICA;0;0;0
FAJS;JNB;JOHANNESBURG INTERNATIONAL;JOHANNESBURG;SOUTH AFRICA;-26.13916667;28.24583333;1694.0784
FAKA;N/A;;KARIBIB;NAMIBIA;0;0;0
FAKB;N/A;;KARASBURG;NAMIBIA;0;0;0
FAKD;N/A;KLERKSDORP;KLERKSDORP;SOUTH AFRICA;-26.87083333;26.71777778;1354.5312
FAKE;N/A;;KEI MOUTH;SOUTH AFRICA;0;0;0
FAKF;N/A;;KOFFEE BAY;SOUTH AFRICA;0;0;0
FAKG;N/A;KOMATI POWER STATION;KOMATI POWER STATION;SOUTH AFRICA;-26.09333333;29.45472222;1609.344
FAKH;N/A;;KENHARDT;SOUTH AFRICA;0;0;0
FAKJ;N/A;;KAMANJAB;NAMIBIA;0;0;0
FAKK;N/A;;KAKAMAS;SOUTH AFRICA;0;0;0
FAKL;N/A;KRIEL;KRIEL;SOUTH AFRICA;-26.25166667;29.19444444;1602.3336
FAKM;KIM;KIMBERLEY;KIMBERLEY;SOUTH AFRICA;-28.80277778;24.765;1203.96
FAKO;N/A;;KOMGA;SOUTH AFRICA;0;0;0
FAKP;N/A;KOMATIPOORT;KOMATIPOORT;SOUTH AFRICA;-25.44055556;31.92972222;152.4
FAKR;N/A;KRUGERSDORP;KRUGERSDORP;SOUTH AFRICA;-26.08083333;27.72555556;1676.4
FAKS;N/A;KROONSTAD;KROONSTAD;SOUTH AFRICA;-27.66055556;27.31555556;1432.56
FAKT;KMP;;KEETMANSHOOP;NAMIBIA;0;0;0
FAKU;N/A;JOHAN PIENAAR;KURUMAN;SOUTH AFRICA;-27.45666667;23.41138889;1335.6336
FAKV;N/A;;KOFFYFONTEIN;SOUTH AFRICA;0;0;0
FAKW;N/A;;KAREEDOUW;SOUTH AFRICA;0;0;0
FAKX;N/A;;KHORIXAS;NAMIBIA;0;0;0
FAKZ;KLZ;KLEINSEE;KLEINSEE;SOUTH AFRICA;-29.68833333;17.09388889;78.9432
FALA;HLA;LANSERIA;JOHANNESBURG;SOUTH AFRICA;-25.93833333;27.92611111;1376.7816
FALB;N/A;LADYBRAND;LADYBRAND;SOUTH AFRICA;-29.18111111;27.45305556;1584.96
FALF;N/A;;LOERIESFONTEIN;SOUTH AFRICA;0;0;0
FALH;N/A;;LOHATHLA;SOUTH AFRICA;0;0;0
FALI;N/A;LICHTENBURG;LICHTENBURG;SOUTH AFRICA;-26.17555556;26.18444444;1485.9
FALK;N/A;;LUSIKISIKI;SOUTH AFRICA;0;0;0
FALL;N/A;;LYDENBURG;SOUTH AFRICA;0;0;0
FALM;N/A;;LAMBERTSBAAI;SOUTH AFRICA;0;0;0
FALR;N/A;;LOUWATER;NAMIBIA;0;0;0
FALT;LCD;LOUIS TRICHARDT AFB;LOUIS TRICHARDT;SOUTH AFRICA;-23.15972222;29.69638889;935.4312
FALW;N/A;LANGEBAANWEG;LANGEBAANWEG;SOUTH AFRICA;-32.96888889;18.16027778;32.9184
FALY;LAY;LADYSMITH;LADYSMITH;SOUTH AFRICA;-28.58166667;29.74972222;1081.4304
FALZ;LUD;;LUDERITZ;NAMIBIA;0;0;0
FAMA;N/A;;MATATIELE;SOUTH AFRICA;0;0;0
FAMB;N/A;MIDDELBURG;MIDDELBURG;SOUTH AFRICA;-25.68472222;29.44;1489.8624
FAMC;N/A;;MIDDELBURG;SOUTH AFRICA;0;0;0
FAMD;N/A;;MALAMALA;SOUTH AFRICA;0;0;0
FAME;N/A;;MARION;SOUTH AFRICA;0;0;0
FAMF;N/A;;MALABAR;SOUTH AFRICA;0;0;0
FAMG;MGH;MARGATE;MARGATE;SOUTH AFRICA;-30.85722222;30.34277778;150.876
FAMH;N/A;;MALTAHOHE;NAMIBIA;0;0;0
FAMI;N/A;MARBLE HALL;MARBLE HALL;SOUTH AFRICA;-24.98888889;29.28305556;908.304
FAMJ;N/A;MAJUBA POWER STATION;MAJUBA POWER STATION;SOUTH AFRICA;-27.07916667;29.77833333;1706.88
FAMK;MFK;MAFIKENG NORTH;MAFIKENG;SOUTH AFRICA;-25.75277778;25.61194444;1264.92
FAML;N/A;;MARIENTAL;NAMIBIA;0;0;0
FAMM;MBO;MAFIKENG;MMABATHO;BOPHUTHATSWANA;-25.79833333;25.54777778;1274.3688
FAMN;N/A;MALELANE;MALALANE;SOUTH AFRICA;-25.47333333;31.56555556;351.4344
FAMO;N/A;;MOSSEL BAY;SOUTH AFRICA;0;0;0
FAMP;MPA;;MPACHA;NAMIBIA;0;0;0
FAMQ;N/A;;MACLEAR;SOUTH AFRICA;0;0;0
FAMR;N/A;;MARIESKOP;SOUTH AFRICA;0;0;0
FAMS;MEZ;MESSINA;MESSINA;SOUTH AFRICA;-22.35583333;29.98638889;573.3288
FAMT;N/A;;MEYERTON;SOUTH AFRICA;0;0;0
FAMU;N/A;MKUZI;MKUZE;SOUTH AFRICA;-27.62583333;32.04416667;121.92
FAMW;MZF;;MZAMBA;SOUTH AFRICA;0;0;0
FAMY;N/A;;MALMESBURY;SOUTH AFRICA;0;0;0
FAMZ;N/A;;MSAULI;SOUTH AFRICA;0;0;0
FANA;NNI;;NAMUTONI;NAMIBIA;0;0;0
FANC;NCS;NEWCASTLE;NEWCASTLE;SOUTH AFRICA;-27.77055556;29.97666667;1241.7552
